kod_stacji,nazwa_stacji,lon,lat,temperatura_gruntu,temperatura_gruntu_data,wiatr_kierunek,wiatr_kierunek_data,wiatr_srednia_predkosc,wiatr_srednia_predkosc_data,wiatr_predkosc_maksymalna,wiatr_predkosc_maksymalna_data,wilgotnosc_wzgledna,wilgotnosc_wzgledna_data,wiatr_poryw_10min,wiatr_poryw_10min_data,opad_10min,opad_10min_data
252210290,RYBIENKO,21.429167,52.577778,,,,,,,,,,,,,0,2025-01-28 17:50:00
351230497,WŁODAWA,23.529444,51.553333,8.2,2025-01-28 17:50:00,147,2025-01-28 17:50:00,3.1,2025-01-28 17:50:00,4.4,2025-01-28 17:50:00,72,2025-01-28 17:50:00,,,0,2025-01-28 17:50:00
352220385,SIEDLCE,22.244722,52.181111,7.5,2025-01-28 17:50:00,134,2025-01-28 17:50:00,3.3,2025-01-28 17:50:00,5.5,2025-01-28 17:50:00,79,2025-01-28 17:50:00,,,0,2025-01-28 17:50:00
250240010,STRZYŻÓW,24.035556,50.84,,,,,,,,,,,,,0,2025-01-28 17:50:00
352230399,TERESPOL,23.621944,52.078611,7.4,2025-01-28 17:50:00,144,2025-01-28 17:50:00,3.5,2025-01-28 17:50:00,6.2,2025-01-28 17:50:00,75,2025-01-28 17:50:00,,,0,2025-01-28 17:50:00
250230070,TOMASZÓW LUBELSKI,23.398889,50.458056,9.83,2025-01-28 17:50:00,146,2025-01-28 17:50:00,1.6,2025-01-28 17:50:00,3.5,2025-01-28 17:50:00,52.27,2025-01-28 17:50:00,,,0,2025-01-28 17:50:00
252230190,CICIBÓR,23.109444,52.076944,7.2,2025-01-28 17:50:00,139,2025-01-28 17:50:00,1.8,2025-01-28 17:50:00,3.8,2025-01-28 17:50:00,76.3,2025-01-28 17:50:00,,,0,2025-01-28 17:50:00
252190120,ŻYCHLIN,19.623056,52.242778,,,,,,,,,,,,,0,2025-01-28 17:50:00
253190030,DOBROCIN,19.828056,53.908333,6.88,2025-01-28 17:50:00,141,2025-01-28 17:50:00,2.2,2025-01-28 17:50:00,4.2,2025-01-28 17:50:00,86.93,2025-01-28 17:50:00,,,0,2025-01-28 17:50:00
253190220,LIDZBARK,19.824167,53.254444,6.14,2025-01-28 17:50:00,122,2025-01-28 17:50:00,2.9,2025-01-28 17:50:00,5.5,2025-01-28 17:50:00,94.89,2025-01-28 17:50:00,,,0,2025-01-28 17:50:00
352190360,PŁOCK,19.725833,52.588333,7.5,2025-01-28 17:50:00,125,2025-01-28 17:50:00,4.8,2025-01-28 17:50:00,7.5,2025-01-28 17:50:00,85,2025-01-28 17:50:00,,,0,2025-01-28 17:50:00
251200030,SKIERNIEWICE,20.160278,51.965278,,,140,2025-01-28 17:50:00,2.8,2025-01-28 17:50:00,4.6,2025-01-28 17:50:00,78,2025-01-28 17:50:00,,,0,2025-01-28 17:50:00
252190160,WALEWICE,19.665556,52.102778,,,,,,,,,,,,,0,2025-01-28 17:50:00
253190310,KULIGI,19.691111,53.430833,,,,,,,,,,,,,0,2025-01-28 17:50:00
252190030,GŁODOWO,19.235556,52.830556,7.5,2025-01-28 17:50:00,99,2025-01-28 17:50:00,2.7,2025-01-28 17:50:00,4.5,2025-01-28 17:50:00,85,2025-01-28 17:50:00,,,0,2025-01-28 17:50:00
252200080,BORKOWO,20.660278,52.561944,,,,,,,,,,,,,0,2025-01-28 17:50:00
252210050,PUŁTUSK,21.090278,52.7275,7.4,2025-01-28 17:50:00,,,2.7,2025-01-28 17:50:00,4.2,2025-01-28 17:50:00,81.21,2025-01-28 17:50:00,,,0,2025-01-28 17:50:00
252230010,NOWOSADY,23.878889,52.9725,,,,,,,,,,,,,0,2025-01-28 17:50:00
252230030,BONDARY,23.754444,52.9375,4.58,2025-01-28 17:50:00,237,2025-01-28 17:50:00,1.2,2025-01-28 17:50:00,3.3,2025-01-28 17:50:00,82.92,2025-01-28 17:50:00,,,0,2025-01-28 17:50:00
252230090,CHRABOŁY,23.195556,52.862222,,,,,,,,,,,,,0,2025-01-28 17:50:00
252230120,BIAŁOWIEŻA,23.847778,52.707222,3.4,2025-01-28 17:50:00,107,2025-01-28 17:50:00,2.4,2025-01-28 17:50:00,4.5,2025-01-28 17:50:00,78,2025-01-28 17:50:00,,,0,2025-01-28 17:50:00
353210280,MIKOŁAJKI,21.589722,53.789167,3.5,2025-01-28 17:50:00,108,2025-01-28 17:50:00,3.4,2025-01-28 17:50:00,4.4,2025-01-28 17:50:00,89,2025-01-28 17:50:00,,,0,2025-01-28 17:50:00
354220195,SUWAŁKI,22.948889,54.130833,4.8,2025-01-28 17:50:00,119,2025-01-28 17:50:00,4.1,2025-01-28 17:50:00,6.6,2025-01-28 17:50:00,87,2025-01-28 17:50:00,,,0,2025-01-28 17:50:00
253210170,ROZOGI,21.379444,53.491389,,,,,,,,,,,,,0,2025-01-28 17:50:00
253210210,MYSZYNIEC,21.350278,53.384444,6.28,2025-01-28 17:50:00,96,2025-01-28 17:50:00,2.3,2025-01-28 17:50:00,3.7,2025-01-28 17:50:00,86.14,2025-01-28 17:50:00,,,0,2025-01-28 17:50:00
253210260,ZARUZIE,21.8025,53.1475,,,,,,,,,,,,,0,2025-01-28 17:50:00
253220080,DĘBOWO,22.930556,53.610556,,,,,,,,,,,,,0,2025-01-28 17:50:00
253220130,RADZIŁÓW,22.405278,53.413889,,,,,,,,,,,,,0,2025-01-28 17:50:00
253220160,BURZYN,22.454167,53.278611,,,,,,,,,,,,,0,2025-01-28 17:50:00
353230295,BIAŁYSTOK,23.162222,53.107222,5,2025-01-28 17:50:00,126,2025-01-28 17:50:00,2,2025-01-28 17:50:00,3.9,2025-01-28 17:50:00,84,2025-01-28 17:50:00,,,0,2025-01-28 17:50:00
253220120,OSOWIEC,22.645833,53.4825,,,,,,,,,,,,,0,2025-01-28 17:50:00
252210020,CZARNOWO,21.535,52.881944,,,,,,,,,,,,,0,2025-01-28 17:50:00
253220310,MOŃKI,22.796389,53.400278,,,,,,,,,,,,,0,2025-01-28 17:50:00
254220090,OLECKO,22.486944,54.0475,4.9,2025-01-28 17:50:00,154,2025-01-28 17:50:00,3.1,2025-01-28 17:50:00,5,2025-01-28 17:50:00,86,2025-01-28 17:50:00,,,0,2025-01-28 17:50:00
253230180,DRAHLE,23.555,53.385556,,,,,,,,,,,,,0,2025-01-28 17:50:00
253210370,ŚWIĘTAJNO,21.228056,53.563611,5.41,2025-01-28 17:50:00,133,2025-01-28 17:50:00,2.6,2025-01-28 17:50:00,4.4,2025-01-28 17:50:00,86.12,2025-01-28 17:50:00,,,0,2025-01-28 17:50:00
353160230,PIŁA,16.747222,53.130556,6.3,2025-01-28 17:50:00,83,2025-01-28 17:50:00,0.6,2025-01-28 17:50:00,1.1,2025-01-28 17:50:00,93,2025-01-28 17:50:00,,,0.1,2025-01-28 17:50:00
353160215,SZCZECINEK,16.746667,53.717778,6.2,2025-01-28 17:50:00,348,2025-01-28 17:50:00,0.5,2025-01-28 17:50:00,0.7,2025-01-28 17:50:00,93,2025-01-28 17:50:00,,,,
253160010,SĘPOLNO WIELKIE,16.773611,53.9475,,,,,,,,,,,,,0.2,2025-01-28 17:50:00
253160110,JASTROWIE,16.813889,53.425556,,,,,,,,,,,,,0.1,2025-01-28 17:50:00
253170160,SYPNIEWO,17.330278,53.364444,,,,,,,,,,,,,0,2025-01-28 17:50:00
252180080,KOŁUDA WIELKA,18.148889,52.735833,7.4,2025-01-28 17:50:00,138,2025-01-28 17:50:00,2.4,2025-01-28 17:50:00,3.8,2025-01-28 17:50:00,85,2025-01-28 17:50:00,,,0,2025-01-28 17:50:00
252150050,KRZYŻ,15.983611,52.881111,6.3,2025-01-28 17:50:00,4,2025-01-28 17:50:00,0.6,2025-01-28 17:50:00,1,2025-01-28 17:50:00,98,2025-01-28 17:50:00,,,0,2025-01-28 17:50:00
253170210,CHRZĄSTOWO,17.583611,53.161111,5.54,2025-01-28 17:50:00,99,2025-01-28 17:50:00,1.8,2025-01-28 17:50:00,2.4,2025-01-28 17:50:00,92.44,2025-01-28 17:50:00,,,0,2025-01-28 17:50:00
253150250,DRAWNO,15.77,53.213056,,,,,,,,,,,,,0,2025-01-28 17:50:00
253160090,WIERZCHOWO,16.104444,53.46,5.4,2025-01-28 17:50:00,0,2025-01-28 17:50:00,0,2025-01-28 17:50:00,0.3,2025-01-28 17:50:00,0,2025-01-28 17:50:00,,,0.1,2025-01-28 17:50:00
250180590,RYBNIK-STODOŁY,18.483056,50.154444,,,,,,,,,,,,,0,2025-01-28 17:50:00
250160650,MIĘDZYLESIE,16.670833,50.153333,,,,,,,,,,,,,0.5,2025-01-28 17:50:00
250170110,DOBROGOSZCZ,17.017222,50.758611,8.4,2025-01-28 17:50:00,255.9,2025-01-28 17:50:00,3.7,2025-01-28 17:50:00,5.4,2025-01-28 17:50:00,82.95,2025-01-28 17:50:00,,,0,2025-01-28 17:50:00
250170290,DZIEWIĘTLICE,17.084167,50.411389,,,,,,,,,,,,,0,2025-01-28 17:50:00
250170330,GŁUCHOŁAZY,17.387222,50.302222,10.9,2025-01-28 17:50:00,231.2,2025-01-28 17:50:00,2.2,2025-01-28 17:50:00,6,2025-01-28 17:50:00,66.07,2025-01-28 17:50:00,,,0,2025-01-28 17:50:00
250170340,JARNOŁTÓWEK,17.438056,50.288056,,,,,,,,,,,,,0,2025-01-28 16:20:00
250170390,GŁUBCZYCE,17.794722,50.181944,9.85,2025-01-28 17:50:00,116.6,2025-01-28 17:50:00,2.5,2025-01-28 17:50:00,5.5,2025-01-28 17:50:00,74.01,2025-01-28 17:50:00,,,0,2025-01-28 17:50:00
250180190,KRUPSKI MŁYN,18.623333,50.569167,,,,,,,,,,,,,0,2025-01-28 17:50:00
249180260,ISTEBNA-KUBALONKA,18.901111,49.603611,4.18,2025-01-28 17:50:00,159,2025-01-28 17:50:00,1.6,2025-01-28 17:50:00,4.1,2025-01-28 17:50:00,79.94,2025-01-28 17:50:00,,,0,2025-01-28 17:50:00
250180690,PILCHOWICE,18.591944,50.224167,,,,,,,,,,,,,0,2025-01-28 17:20:00
249210350,MOSZCZANIEC,21.912778,49.422222,,,,,,,,,,,,,0,2025-01-28 17:50:00
249180580,GOCZAŁKOWICE-ZDRÓJ,18.933889,49.938333,,,,,,,,,,,,,0,2025-01-28 17:50:00
249201050,KRÓLÓWKA,20.433333,49.887222,,,,,,,,,,,,,0,2025-01-28 17:50:00
249180570,MIĘDZYRZECZE GÓRNE,18.928333,49.839444,,,,,,,,,,,,,0,2025-01-28 17:50:00
250160950,KWIETNIKI,16.142778,50.966944,,,,,,,,,,,,,0.1,2025-01-28 17:50:00
250190260,GOLCZOWICE,19.595833,50.36,,,,,,,,,,,,,0,2025-01-28 17:50:00
249180270,ISTEBNA-MŁODA GÓRA,18.861944,49.580556,,,,,,,,,,,,,0,2025-01-14 14:50:00
250160580,SPALONA,16.538333,50.276667,,,,,,,,,,,,,0.1,2025-01-28 17:50:00
252210330,RZĄŚNIK WŁOŚCIAŃSKI,21.720556,52.849722,,,,,,,,,,,,,0,2025-01-28 17:50:00
252230280,JAGODNIKI,23.489167,52.697222,6.3,2025-01-28 17:50:00,122,2025-01-28 17:50:00,2.7,2025-01-28 17:50:00,3.9,2025-01-28 17:50:00,77.8,2025-01-28 17:50:00,,,0,2025-01-28 17:50:00
250180640,ZABRZE,18.753611,50.365,,,,,,,,,,,,,0,2025-01-28 17:50:00
250180710,BOGUSZYCE,18.510278,50.436944,,,,,,,,,,,,,0,2025-01-28 17:50:00
253190360,NAJMOWO,19.326667,53.308333,6.7,2025-01-28 17:50:00,108,2025-01-28 17:50:00,4.4,2025-01-28 17:50:00,6.4,2025-01-28 17:50:00,89.6,2025-01-28 17:50:00,,,0,2025-01-28 17:50:00
250160920,PIŁAWA GÓRNA,16.7325,50.689444,,,,,,,,,,,,,0,2025-01-28 17:50:00
251150130,ŁOZY,15.366944,51.489444,,,,,,,,,,,,,0.1,2025-01-28 17:50:00
249191030,KOPYTÓWKA,19.636111,49.933611,,,,,,,,,,,,,0,2025-01-27 04:50:00
250180530,KIETRZ,18.010278,50.082222,,,,,,,,,,,,,0,2025-01-28 17:50:00
249190960,BUDZÓW,19.659444,49.773889,,,,,,,,,,,,,0,2025-01-28 17:50:00
254180070,TĘPCZ,18.038889,54.5075,,,,,,,,,,,,,0.2,2025-01-28 17:50:00
249180280,ISTEBNA-STECÓWKA,18.940278,49.585278,,,,,,,,,,,,,,
250150190,KOWARY,15.824167,50.803611,,,,,,,,,,,,,0.1,2025-01-28 17:50:00
250150220,KARPACZ,15.769444,50.778889,4.33,2025-01-28 17:50:00,0,2025-01-28 17:50:00,1,2025-01-28 17:50:00,1.9,2025-01-28 17:50:00,93.65,2025-01-28 17:50:00,,,0,2025-01-28 17:50:00
250150240,PACZYN,15.911389,50.739722,,,,,,,,,,,,,0,2025-01-28 17:50:00
250150250,PAPROTKI,15.948056,50.726667,4.4,2025-01-28 17:50:00,188,2025-01-28 17:50:00,2.8,2025-01-28 17:50:00,4.1,2025-01-28 17:50:00,91.7,2025-01-28 17:50:00,,,0,2025-01-28 17:50:00
250150260,BUKÓWKA,15.957222,50.712778,,,,,,,,,,,,,0,2025-01-28 17:50:00
250160070,BORÓW,16.99,50.882222,,,,,,,,,,,,,0,2025-01-28 17:50:00
250160090,PSZENNO,16.528611,50.861389,7.4,2025-01-28 17:50:00,277,2025-01-28 17:50:00,4.8,2025-01-28 17:50:00,7.2,2025-01-28 17:50:00,82.7,2025-01-28 17:50:00,,,0,2025-01-28 17:50:00
250160120,LUBOMIN,16.195833,50.803611,,,,,,,,,,,,,0,2025-01-28 17:50:00
250150110,KACZORÓW,15.935833,50.908889,,,,,,,,,,,,,0,2025-01-28 17:50:00
250160620,KAMIENICA,16.884167,50.227222,,,,,,,,,,,,,0,2025-01-28 17:50:00
251150280,TWARDOCICE,15.7475,51.090556,,,,,,,,,,,,,0,2025-01-28 17:50:00
251150360,ŚWIERZAWA,15.888889,51.016944,,,,,,,,,,,,,0,2025-01-28 17:50:00
251160110,OSETNO,16.464167,51.631944,6.48,2025-01-28 17:50:00,,,,,,,,,,,0,2025-01-28 17:50:00
251160150,POLKOWICE DOLNE,16.056111,51.500556,5.7,2025-01-28 17:50:00,243,2025-01-28 17:50:00,1.4,2025-01-28 17:50:00,3.4,2025-01-28 17:50:00,97,2025-01-28 17:50:00,,,0,2025-01-28 17:50:00
251160220,OBORNIKI ŚLĄSKIE,16.930556,51.289444,,,,,,,,,,,,,0,2025-01-28 17:50:00
251160290,JAWOR,16.183611,51.063333,,,,,,,,,,,,,0.1,2025-01-28 17:50:00
251170140,MILICZ,17.277222,51.511111,,,,,,,,,,,,,0,2025-01-28 17:50:00
251170210,TRZEBNICA,17.068056,51.322778,,,,,,,,,,,,,0,2025-01-28 17:50:00
251170270,BIERUTÓW,17.544722,51.118889,,,,,,,,,,,,,0,2025-01-28 17:50:00
250150210,PRZESIEKA,15.667222,50.798889,,,,,,,,,,,,,0,2025-01-28 17:50:00
250160520,LĄDEK-ZDRÓJ,16.885,50.345278,8.09,2025-01-28 17:50:00,217.9,2025-01-28 17:50:00,3.7,2025-01-28 17:50:00,8.8,2025-01-28 17:50:00,86.04,2025-01-28 17:50:00,,,0,2025-01-28 17:50:00
250150170,JAKUSZYCE,15.441944,50.823056,2,2025-01-28 17:50:00,254,2025-01-28 17:50:00,1.7,2025-01-28 17:50:00,4,2025-01-28 17:50:00,97.6,2025-01-28 17:50:00,,,0.2,2025-01-28 17:50:00
250180030,STARE OLESNO,18.363889,50.904722,10.05,2025-01-28 17:50:00,161.4,2025-01-28 17:50:00,2.4,2025-01-28 17:50:00,4.7,2025-01-28 17:50:00,77.39,2025-01-28 17:50:00,,,0,2025-01-28 17:50:00
250150150,SZKLARSKA PORĘBA,15.529167,50.834444,4.5,2025-01-28 17:50:00,318,2025-01-28 17:50:00,1.4,2025-01-28 17:50:00,3,2025-01-28 17:50:00,92,2025-01-28 17:50:00,,,0,2025-01-28 17:50:00
250160410,BARDO,16.744167,50.509167,,,,,,,,,,,,,0,2025-01-28 17:50:00
350180540,RACIBÓRZ,18.190833,50.061111,8.8,2025-01-28 17:50:00,8,2025-01-28 17:50:00,1.7,2025-01-28 17:50:00,2.8,2025-01-28 17:50:00,67.9,2025-01-28 17:50:00,,,0,2025-01-28 17:50:00
351150400,ZIELONA GÓRA,15.524722,51.93,5.8,2025-01-28 17:50:00,303,2025-01-28 17:50:00,2.8,2025-01-28 17:50:00,5.3,2025-01-28 17:50:00,99,2025-01-28 17:50:00,,,0,2025-01-28 17:50:00
250160220,JEDLINA-ZDRÓJ,16.349167,50.718611,,,,,,,,,,,,,0,2025-01-28 17:50:00
354160105,KOSZALIN,16.155278,54.204444,6.5,2025-01-28 17:50:00,118,2025-01-28 17:50:00,1.8,2025-01-28 17:50:00,2.4,2025-01-28 17:50:00,97,2025-01-28 17:50:00,,,0,2025-01-28 17:50:00
354180135,HEL,18.811944,54.603611,5.9,2025-01-28 17:50:00,118,2025-01-28 17:50:00,4,2025-01-28 17:50:00,7.3,2025-01-28 17:50:00,95,2025-01-28 17:50:00,,,0,2025-01-28 17:50:00
254180010,ROZEWIE,18.335556,54.829444,6.92,2025-01-28 17:50:00,134,2025-01-28 17:50:00,4.7,2025-01-28 17:50:00,8.5,2025-01-28 17:50:00,93.47,2025-01-28 17:50:00,,,0,2025-01-28 17:50:00
254180050,WEJHEROWO,18.270278,54.598333,,,,,,,,,,,,,0,2025-01-28 17:50:00
254180060,GDYNIA,18.559444,54.518889,5.6,2025-01-28 17:50:00,147,2025-01-28 17:50:00,1.8,2025-01-28 17:50:00,2.1,2025-01-28 17:50:00,93,2025-01-28 17:50:00,,,0,2025-01-28 17:50:00
254180140,OSTRZYCE-BRODNICA GÓRNA,18.091389,54.274444,6.32,2025-01-28 17:50:00,105,2025-01-28 17:50:00,2.9,2025-01-28 17:50:00,4.9,2025-01-28 17:50:00,87.88,2025-01-28 17:50:00,,,0,2025-01-28 17:50:00
354170120,ŁEBA,17.534722,54.753611,5.7,2025-01-28 15:20:00,356,2025-01-28 15:20:00,1,2025-01-28 15:20:00,1.6,2025-01-28 15:20:00,90,2025-01-28 15:20:00,,,0,2025-01-28 15:20:00
250170790,WOJNOWICE,17.868333,50.133611,,,,,,,,,,,,,0,2025-01-28 17:50:00
250170810,BRANICE,17.775833,50.051111,,,,,,,,,,,,,0,2025-01-28 17:50:00
251200290,TEOFILÓW,20.182778,51.528056,,,,,,,,,,,,,0,2025-01-28 17:50:00
249180020,WARSZOWICE,18.705556,49.991944,,,,,,,,,,,,,0,2025-01-28 17:50:00
250150350,PODGÓRZYN,15.6875,50.825556,,,,,,,,,,,,,0,2025-01-28 17:50:00
250160590,DŁUGOPOLE-ZDRÓJ,16.633333,50.249722,6.6,2025-01-28 17:50:00,175,2025-01-28 17:50:00,2.3,2025-01-28 17:50:00,6.8,2025-01-28 17:50:00,88,2025-01-28 17:50:00,,,0,2025-01-28 17:50:00
250180380,SUKOWICE,18.169722,50.262778,9.5,2025-01-28 17:50:00,190,2025-01-28 17:50:00,3.2,2025-01-28 17:50:00,5.6,2025-01-28 17:50:00,69,2025-01-28 17:50:00,,,0,2025-01-28 17:50:00
251160360,GŁOGÓW,16.06,51.6725,,,,,,,,,,,,,0,2025-01-28 17:50:00
250160320,OSTROSZOWICE,16.635833,50.644167,,,,,,,,,,,,,0,2025-01-28 17:50:00
250160840,SZALEJÓW GÓRNY,16.5525,50.430556,,,,,,,,,,,,,0,2025-01-28 17:50:00
252150180,LUBINICKO-ŚWIEBODZIN,15.545278,52.242778,6.35,2025-01-28 17:50:00,237,2025-01-28 17:50:00,0.7,2025-01-28 17:50:00,2.1,2025-01-28 17:50:00,98.14,2025-01-28 17:50:00,,,0,2025-01-28 17:50:00
250150510,MIRSK,15.383333,50.986944,,,,,,,,,,,,,0,2025-01-28 17:50:00
249180530,ISTEBNA-STECÓWKA,18.937778,49.584722,,,,,,,,,,,,,0,2025-01-28 17:50:00
250160360,TARNÓW,16.792778,50.575278,9.2,2025-01-28 17:50:00,244,2025-01-28 17:50:00,3.3,2025-01-28 17:50:00,7.1,2025-01-28 17:50:00,,,,,0,2025-01-28 17:50:00
251160320,RADZYŃ,16.037778,51.8725,5.9,2025-01-28 17:50:00,223,2025-01-28 17:50:00,0.8,2025-01-28 17:50:00,1.9,2025-01-28 17:50:00,96,2025-01-28 17:50:00,,,0,2025-01-28 17:50:00
249180410,ISTEBNA-WIEŚ,18.892222,49.568889,,,,,,,,,,,,,0,2025-01-28 17:50:00
250180330,ŁABĘDY,18.615278,50.341944,,,,,,,,,,,,,0,2025-01-28 17:50:00
252160050,RYCZYWÓŁ,16.838889,52.815833,,,,,,,,,,,,,0,2025-01-28 17:50:00
252170060,JANOWIEC WIELKOPOLSKI,17.462222,52.754722,,,,,,,,,,,,,0,2025-01-28 17:50:00
352150300,GORZÓW WIELKOPOLSKI,15.277222,52.741111,4.9,2025-01-28 17:50:00,294,2025-01-28 17:50:00,1.4,2025-01-28 17:50:00,2.1,2025-01-28 17:50:00,96,2025-01-28 17:50:00,,,0,2025-01-28 17:50:00
352140310,SŁUBICE,14.619722,52.348611,5.9,2025-01-28 17:50:00,225,2025-01-28 17:50:00,2,2025-01-28 17:50:00,3,2025-01-28 17:50:00,99,2025-01-28 17:50:00,,,0,2025-01-28 17:50:00
251150290,SULIKÓW,15.065,51.076944,,,,,,,,,,,,,0,2025-01-28 17:50:00
251150320,BIERNA,15.116389,51.038889,,,,,,,,,,,,,0,2025-01-01 06:50:00
250140030,BOGATYNIA,14.980556,50.899722,4.85,2025-01-28 17:50:00,216.3,2025-01-28 17:50:00,0.7,2025-01-28 17:50:00,1.1,2025-01-28 17:50:00,97.45,2025-01-28 17:50:00,,,0,2025-01-28 17:50:00
252160160,PAPROĆ,16.183056,52.304444,6.9,2025-01-28 17:50:00,278,2025-01-28 17:50:00,1,2025-01-28 17:50:00,1.6,2025-01-28 17:50:00,97,2025-01-28 17:50:00,,,0,2025-01-28 17:50:00
252160230,WIELICHOWO,16.356389,52.113889,6.2,2025-01-28 17:50:00,248,2025-01-28 17:50:00,0.9,2025-01-28 17:50:00,1.7,2025-01-28 17:50:00,97,2025-01-28 17:50:00,,,0,2025-01-28 17:20:00
252160110,SZAMOTUŁY-BABORÓWKO,16.638056,52.584444,5.6,2025-01-28 17:50:00,357.7,2025-01-28 17:50:00,0.5,2025-01-28 17:50:00,0.7,2025-01-28 17:50:00,97.6,2025-01-28 17:50:00,,,0,2025-01-28 17:50:00
251140110,SANICE,14.975833,51.406111,5.4,2025-01-28 17:50:00,238.5,2025-01-28 17:50:00,1.7,2025-01-28 17:50:00,2.7,2025-01-28 17:50:00,96.4,2025-01-28 17:50:00,,,0,2025-01-28 17:50:00
253150070,ŁABĘDZIE,15.809167,53.650556,,,,,,,,,,,,,0.1,2025-01-28 17:50:00
253160020,OSÓWKO,16.068056,53.905556,,,,,,,,,,,,,,
353150210,RESKO-SMÓLSKO,15.393333,53.763611,5.1,2025-01-28 17:50:00,89,2025-01-28 17:50:00,1.7,2025-01-28 17:50:00,2.2,2025-01-28 17:50:00,96,2025-01-28 17:50:00,,,0.1,2025-01-28 17:50:00
354150100,KOŁOBRZEG-DŹWIRZYNO,15.388889,54.158333,5.5,2025-01-28 17:50:00,103,2025-01-28 17:50:00,2.2,2025-01-28 17:50:00,4.4,2025-01-28 17:50:00,97,2025-01-28 17:50:00,,,0.1,2025-01-28 17:50:00
354160115,USTKA,16.854167,54.588333,5.2,2025-01-28 17:50:00,130,2025-01-28 17:50:00,0.8,2025-01-28 17:50:00,1,2025-01-28 17:50:00,93,2025-01-28 17:50:00,,,0,2025-01-28 17:50:00
354170125,LĘBORK,17.756944,54.553056,6.9,2025-01-28 17:50:00,98,2025-01-28 17:50:00,1.1,2025-01-28 17:50:00,1.9,2025-01-28 17:50:00,93,2025-01-28 17:50:00,,,0,2025-01-28 17:50:00
254160110,MIASTKO,16.980278,54.015556,5.12,2025-01-28 17:50:00,145,2025-01-28 17:50:00,0,2025-01-28 17:50:00,0.7,2025-01-28 17:50:00,97.69,2025-01-28 17:50:00,,,0.1,2025-01-28 17:50:00
254160020,DARŁOWO,16.368333,54.433333,5.7,2025-01-28 17:50:00,73,2025-01-28 17:50:00,1,2025-01-28 17:50:00,1.5,2025-01-28 17:50:00,97,2025-01-28 17:50:00,,,0.2,2025-01-28 17:50:00
254180260,GDAŃSK-PORT PÓŁNOCNY,18.697778,54.399722,6.1,2025-01-28 17:50:00,125,2025-01-28 17:50:00,2.5,2025-01-28 17:50:00,3.8,2025-01-28 17:50:00,91,2025-01-28 17:50:00,,,0,2025-01-28 17:50:00
254170040,KARŻNICZKA,17.228611,54.4875,6.7,2025-01-28 17:50:00,110,2025-01-28 17:50:00,2.2,2025-01-28 17:50:00,3.3,2025-01-28 17:50:00,95,2025-01-28 17:50:00,,,0.2,2025-01-28 17:50:00
254180090,GDAŃSK-RĘBIECHOWO,18.486667,54.371111,,,114,2025-01-28 17:50:00,3.3,2025-01-28 17:50:00,4.4,2025-01-28 17:50:00,95,2025-01-28 17:50:00,,,0,2025-01-28 17:50:00
254140010,DZIWNÓW,14.731667,54.022222,5.5,2025-01-28 17:50:00,142,2025-01-28 17:50:00,1.1,2025-01-28 17:50:00,1.6,2025-01-28 17:50:00,96.4,2025-01-28 17:50:00,,,0.1,2025-01-28 17:50:00
253140010,WOLIN,14.615833,53.8375,,,,,,,,,,,,,0,2025-01-28 17:50:00
253150130,LISOWO,15.301389,53.430833,,,,,,,,,,,,,0,2025-01-28 17:50:00
353140205,SZCZECIN,14.622778,53.395278,5.1,2025-01-28 17:50:00,218,2025-01-28 17:50:00,1.6,2025-01-28 17:50:00,2,2025-01-28 17:50:00,99,2025-01-28 17:50:00,,,0.1,2025-01-28 17:50:00
353140200,ŚWINOUJŚCIE,14.242222,53.923333,5.2,2025-01-28 17:50:00,171,2025-01-28 17:50:00,2.9,2025-01-28 17:50:00,4.7,2025-01-28 17:50:00,93,2025-01-28 17:50:00,,,0,2025-01-28 17:50:00
253140110,GRYFINO,14.484444,53.256944,,,,,,,,,,,,,0.1,2025-01-28 17:50:00
253140040,TRZEBIEŻ,14.513889,53.663056,5.1,2025-01-28 17:50:00,165,2025-01-28 17:50:00,2.9,2025-01-08 12:50:00,5.5,2025-01-08 12:50:00,99.37,2025-01-28 17:50:00,,,0.2,2025-01-28 17:50:00
253150190,PRZELEWICE,15.082222,53.104167,3.5,2024-12-23 13:50:00,0,2025-01-28 17:50:00,0,2025-01-28 17:50:00,0,2025-01-28 17:50:00,97.9,2025-01-28 17:50:00,,,0,2025-01-28 17:50:00
353170235,CHOJNICE,17.5325,53.715278,6.5,2025-01-28 17:50:00,109,2025-01-28 17:50:00,1.9,2025-01-28 17:50:00,2.8,2025-01-28 17:50:00,93.2,2025-01-28 17:50:00,,,0,2025-01-28 17:50:00
253170060,ZAPĘDOWO,17.840278,53.704167,,,,,,,,,,,,,0,2025-01-28 17:50:00
253180040,STAROGARD GDAŃSKI,18.548889,53.982222,7.1,2025-01-28 17:50:00,118,2025-01-28 17:50:00,1.9,2025-01-28 17:50:00,3.3,2025-01-28 17:50:00,88.33,2025-01-28 17:50:00,,,0,2025-01-28 17:50:00
253180060,CZARNA WODA,18.092778,53.840556,,,,,,,,,,,,,0,2025-01-28 17:50:00
253180090,ŚLIWICE,18.175833,53.704722,6.46,2025-01-28 17:50:00,264,2025-01-16 06:20:00,5,2025-01-16 06:20:00,2.7,2025-01-28 17:50:00,89.92,2025-01-28 17:50:00,,,0,2025-01-28 17:50:00
253180150,GRUDZIĄDZ,18.709444,53.4375,7.45,2025-01-28 17:50:00,202,2025-01-28 17:50:00,4.5,2025-01-28 17:50:00,6.1,2025-01-28 17:50:00,89.18,2025-01-28 17:50:00,,,0,2025-01-28 17:50:00
253180220,BYDGOSZCZ,18.045833,53.173611,6.78,2025-01-28 17:50:00,130,2025-01-28 17:50:00,0.3,2025-01-28 17:50:00,1.8,2025-01-28 17:50:00,94.73,2025-01-28 17:50:00,,,0,2025-01-28 17:50:00
353180250,TORUŃ,18.595556,53.041944,7.9,2025-01-28 17:50:00,103,2025-01-28 17:50:00,2.4,2025-01-28 17:50:00,4.2,2025-01-28 17:50:00,89,2025-01-28 17:50:00,,,0,2025-01-28 17:50:00
254170140,KOŚCIERZYNA,17.961944,54.128611,6.2,2025-01-28 17:50:00,98.5,2025-01-28 17:50:00,1.5,2025-01-28 17:50:00,2.7,2025-01-28 17:50:00,93.3,2025-01-28 17:50:00,,,0,2025-01-28 17:50:00
253180020,RADOSTOWO,18.747222,53.989444,6.8,2025-01-28 17:50:00,141,2025-01-28 17:50:00,2.2,2025-01-28 17:50:00,,,91,2025-01-28 17:50:00,,,0,2025-01-28 17:50:00
354180155,GDAŃSK-ŚWIBNO,18.934444,54.333611,7.2,2025-01-28 17:50:00,99,2025-01-28 17:50:00,4.3,2025-01-28 17:50:00,5.5,2025-01-28 17:50:00,87,2025-01-28 17:50:00,,,0,2025-01-28 17:50:00
250190140,ŻARKI,19.380278,50.64,,,,,,,,,,,,,0,2025-01-28 17:50:00
252180260,TUREK,18.498333,52.010278,,,,,,,,,,,,,0,2025-01-28 17:50:00
351180435,KALISZ,18.080833,51.781111,9,2025-01-28 17:50:00,133,2025-01-28 17:50:00,2.8,2025-01-28 17:50:00,4.2,2025-01-28 17:50:00,80,2025-01-28 17:50:00,,,0,2025-01-28 17:50:00
352180345,KOŁO-RADOSZEWICE,18.706111,52.361944,8.2,2025-01-28 17:50:00,139,2025-01-28 17:50:00,3.9,2025-01-28 17:50:00,5.8,2025-01-28 17:50:00,79,2025-01-28 17:50:00,,,0,2025-01-28 17:50:00
352160330,POZNAŃ-ŁAWICA,16.834722,52.416667,6.2,2025-01-28 17:50:00,75,2025-01-28 17:50:00,1.3,2025-01-28 17:50:00,2,2025-01-28 17:50:00,96.2,2025-01-28 17:50:00,,,0,2025-01-28 17:50:00
351180455,WIELUŃ,18.556667,51.210278,8.9,2025-01-28 17:50:00,115,2025-01-28 17:50:00,1.9,2025-01-28 17:50:00,3.2,2025-01-28 17:50:00,80,2025-01-28 17:50:00,,,0,2025-01-28 17:50:00
350190550,CZĘSTOCHOWA,19.091667,50.811944,8.8,2025-01-28 17:50:00,139,2025-01-28 17:50:00,1.9,2025-01-28 17:50:00,3.3,2025-01-28 17:50:00,72,2025-01-28 17:50:00,,,0,2025-01-28 17:50:00
250190170,KRĘCIWILK,19.370278,50.545278,,,,,,,,,,,,,0,2025-01-28 17:50:00
251180020,ZBIERSK,18.150278,51.943333,,,,,,,,,,,,,0,2025-01-28 17:50:00
251180040,PODDĘBICE,18.959722,51.885556,,,,,,,,,,,,,0,2025-01-28 17:50:00
251180050,LISKÓW,18.41,51.835278,,,,,,,,,,,,,0,2025-01-28 17:50:00
251180140,ZŁOCZEW,18.599167,51.421111,,,,,,,,,,,,,0,2025-01-28 17:50:00
251180190,SIEMIANICE,18.143056,51.182778,,,,,,,,,,,,,0,2025-01-28 17:50:00
251180240,JASTRZYGOWICE,18.456944,51.001111,,,,,,,,,,,,,0,2025-01-28 17:50:00
251180160,OSJAKÓW,18.783611,51.283056,,,,,,,,,,,,,0,2025-01-28 17:50:00
252180210,KŁODAWA,18.915833,52.250833,,,,,,,,,,,,,0,2025-01-28 17:50:00
251180150,MIRKÓW,18.146389,51.310278,,,,,,,,,,,,,0,2025-01-28 17:50:00
252170180,WRZEŚNIA,17.5925,52.315,,,,,,,,,,,,,0,2025-01-28 17:50:00
351190465,ŁÓDŹ-LUBLINEK,19.387222,51.718333,10.1,2025-01-28 17:50:00,131,2025-01-28 17:50:00,3,2025-01-28 17:50:00,5.4,2025-01-28 17:50:00,71,2025-01-28 17:50:00,,,0,2025-01-28 17:50:00
252170210,KÓRNIK,17.101944,52.245278,5.4,2025-01-24 10:20:00,175,2025-01-24 10:20:00,2.1,2025-01-24 10:20:00,4.1,2025-01-24 10:20:00,72,2025-01-24 10:20:00,,,0,2025-01-24 10:20:00
251190220,DOBRYSZYCE,19.408333,51.1475,8,2025-01-28 17:50:00,132,2025-01-28 17:50:00,3.8,2025-01-28 17:50:00,5.4,2025-01-28 17:50:00,75.5,2025-01-28 17:50:00,,,0,2025-01-28 17:50:00
251180330,DZIAŁOSZYN,18.873889,51.12,,,,,,,,,,,,,0,2025-01-28 17:50:00
251180310,KIEŁCZYGŁÓW,18.985,51.237222,,,,,,,,,,,,,0,2025-01-28 17:50:00
251180320,KRASZEWICE,18.204722,51.530278,,,,,,,,,,,,,0,2025-01-28 17:50:00
252170330,NOWA WIEŚ PODGÓRNA,17.589167,52.142222,,,,,,,,,,,,,0,2025-01-28 17:50:00
251170360,OSTRÓW WIELKOPOLSKI,17.873333,51.660833,,,,,,,,,,,,,0,2025-01-28 17:50:00
251190210,SZCZERCÓW,19.119167,51.340833,,,,,,,,,,,,,0,2025-01-28 17:50:00
252180290,TULISZKÓW,18.268611,52.067778,,,,,,,,,,,,,0,2025-01-28 17:50:00
252170190,SŁUPCA,17.883333,52.271944,7.58,2025-01-28 17:50:00,105.7,2025-01-28 17:50:00,1.9,2025-01-28 17:50:00,3.1,2025-01-28 17:50:00,86.39,2025-01-28 17:50:00,,,0,2025-01-28 17:50:00
251170380,WOLA KSIĄŻĘCA,17.589167,51.961389,6.9,2025-01-28 17:50:00,151,2025-01-28 17:50:00,2,2025-01-28 17:50:00,3.7,2025-01-28 17:50:00,87.18,2025-01-28 17:50:00,,,0,2025-01-28 17:50:00
251190190,ŁASK,19.178611,51.585556,,,,,,,,,,,,,0,2025-01-28 17:50:00
250180580,DRONIOWICE,18.808056,50.695278,10.3,2025-01-28 17:50:00,157,2025-01-28 17:50:00,2.1,2025-01-28 17:50:00,3.8,2025-01-28 17:50:00,68,2025-01-28 17:50:00,,,0,2025-01-28 17:50:00
251180350,SIERADZ-DZIGORZEW,18.704722,51.624167,9.4,2025-01-28 17:50:00,139,2025-01-28 17:50:00,4.3,2025-01-28 17:50:00,6.5,2025-01-28 17:50:00,72.3,2025-01-28 17:50:00,,,0,2025-01-28 17:50:00
250190010,JANUSZEWICE,19.961111,50.941944,,,,,,,,,,,,,0,2025-01-28 17:50:00
251200220,WŁOCHÓW,20.612222,51.098889,,,,,,,,,,,,,0,2025-01-28 17:50:00
251200250,SUCHEDNIÓW,20.830556,51.049722,,,,,,,,,,,,,0,2025-01-28 17:50:00
251210230,STARACHOWICE,21.055833,51.041667,,,,,,,,,,,,,0,2025-01-28 17:50:00
251210240,BRODY IŁŻECKIE,21.196944,51.018611,,,,,,,,,,,,,0,2025-01-28 17:50:00
251220040,RADZYŃ PODLASKI,22.600833,51.769167,,,,,,,,,,,,,0,2025-01-28 17:50:00
251200150,ŁAZISKA,20.925833,51.323889,7.97,2025-01-28 17:50:00,128,2025-01-28 17:50:00,2.3,2025-01-23 10:50:00,4.5,2025-01-28 17:50:00,77.12,2025-01-28 17:50:00,,,0,2025-01-28 17:20:00
252210240,WIELGOLAS,21.723889,52.037222,,,,,,,,,,,,,0,2025-01-28 17:50:00
350230595,ZAMOŚĆ,23.205556,50.698333,9.2,2025-01-28 17:50:00,152,2025-01-28 17:50:00,3.2,2025-01-28 17:50:00,4.8,2025-01-28 17:50:00,60,2025-01-28 17:50:00,,,0,2025-01-28 17:50:00
351210488,KOZIENICE,21.543611,51.564722,5.3,2025-01-28 17:50:00,134,2025-01-28 17:50:00,1.6,2025-01-28 17:50:00,2.6,2025-01-28 17:50:00,93,2025-01-28 17:50:00,,,0,2025-01-28 17:50:00
250200040,BODZENTYN,20.951389,50.946944,8.4,2025-01-28 17:50:00,136,2025-01-28 17:50:00,,,,,72.5,2025-01-28 17:50:00,,,0,2025-01-28 17:50:00
250210020,NOSÓW,21.219167,50.919167,,,,,,,,,,,,,0,2025-01-28 17:50:00
250210030,ANNOPOL,21.834167,50.889444,,,,,,,,,,,,,0,2025-01-28 17:50:00
250220030,WYSOKIE,22.666944,50.917778,10.77,2025-01-28 17:50:00,172,2025-01-28 17:50:00,2.3,2025-01-28 17:50:00,4.5,2025-01-28 17:50:00,63.79,2025-01-28 17:50:00,,,0,2025-01-28 17:50:00
251190160,PRZEDBÓRZ,19.875278,51.090556,,,,,,,,,,,,,0.1,2025-01-28 17:50:00
251200080,BIAŁOBRZEGI,20.940278,51.648333,8.8,2025-01-28 17:50:00,138.5,2025-01-28 17:50:00,3.2,2025-01-28 17:50:00,5,2025-01-28 17:50:00,75.8,2025-01-28 17:50:00,,,0,2025-01-28 17:50:00
251200130,OPOCZNO,20.234444,51.378889,,,,,,,,,,,,,0,2025-01-28 17:50:00
251200140,RUSZKOWICE,20.665833,51.339167,,,,,,,,,,,,,0,2025-01-28 17:50:00
251200240,STANOWISKA,20.371389,51.041944,,,,,,,,,,,,,0,2025-01-28 17:50:00
352200375,WARSZAWA-OKĘCIE,20.961111,52.162778,,,122,2025-01-28 17:50:00,3.1,2025-01-28 17:50:00,4.5,2025-01-28 17:50:00,80,2025-01-28 17:50:00,,,0,2025-01-28 17:50:00
250190210,PILICA,19.646944,50.459722,,,,,,,,,,,,,0,2025-01-28 17:50:00
250210050,ŚWIĘTY KRZYŻ,21.051389,50.859444,6.88,2025-01-28 17:50:00,185,2025-01-28 17:50:00,7.4,2025-01-28 17:50:00,13.7,2025-01-28 17:50:00,84.61,2025-01-28 17:50:00,,,0,2025-01-28 17:50:00
251200170,CHEŁSTY,20.148611,51.215833,,,,,,,,,,,,,0,2025-01-28 17:50:00
351220495,LUBLIN-RADAWIEC,22.393056,51.216667,9.3,2025-01-28 17:50:00,176,2025-01-28 17:50:00,3.2,2025-01-28 17:50:00,5.4,2025-01-28 17:50:00,70,2025-01-28 17:50:00,,,0,2025-01-28 17:50:00
250190080,WĄSOSZ,19.685833,50.7375,,,,,,,,,,,,,0,2025-01-28 17:50:00
251200270,DĄBRÓWKA STARA,20.736944,51.780278,7.3,2025-01-28 17:50:00,312,2025-01-28 17:50:00,3.2,2025-01-28 17:50:00,4.2,2025-01-28 17:50:00,83.83,2025-01-28 17:50:00,,,0,2025-01-28 17:50:00
252200150,WARSZAWA-BIELANY,20.963333,52.281389,8,2025-01-28 17:50:00,126,2025-01-28 17:50:00,3,2025-01-28 17:50:00,5.2,2025-01-28 17:50:00,75,2025-01-28 17:50:00,,,0,2025-01-28 17:50:00
251210040,JARCZEW,21.973333,51.814722,7.5,2025-01-28 17:50:00,148,2025-01-28 17:50:00,2.6,2025-01-28 17:50:00,4.6,2025-01-28 17:50:00,79,2025-01-28 17:50:00,,,0,2025-01-28 17:50:00
251210120,PUŁAWY,21.966111,51.412778,6.8,2025-01-28 17:50:00,141,2025-01-28 17:50:00,1.6,2025-01-28 17:50:00,3.3,2025-01-28 17:50:00,76,2025-01-28 17:50:00,,,0,2025-01-28 17:50:00
250210040,NOWA SŁUPIA,21.083333,50.864167,,,,,,,,,,,,,0,2025-01-28 17:50:00
251230120,BEZEK,23.263611,51.177222,8.91,2025-01-28 17:50:00,153,2025-01-28 17:50:00,3.2,2025-01-28 17:50:00,5.3,2025-01-28 17:50:00,69.43,2025-01-28 17:50:00,,,0,2025-01-28 17:50:00
251190230,JAROSTY,19.691944,51.4625,,,,,,,,,,,,,0,2025-01-28 17:50:00
252200120,LEGIONOWO,20.956111,52.407778,7.8,2025-01-28 17:50:00,110,2025-01-28 17:50:00,1.8,2025-01-28 17:50:00,3.7,2025-01-28 17:50:00,83,2025-01-28 17:50:00,,,0,2025-01-28 17:50:00
250180270,ŚWIERKLANIEC,18.9425,50.428889,6.6,2025-01-28 17:50:00,138,2025-01-28 17:50:00,2.4,2025-01-28 17:50:00,3.4,2025-01-28 17:50:00,74.8,2025-01-28 17:50:00,,,0,2025-01-28 17:50:00
249200220,ROZTOKA,20.383333,49.640278,,,,,,,,,,,,,0,2025-01-28 17:50:00
249200240,PTASZKOWA,20.886667,49.600278,9.56,2025-01-28 17:50:00,153,2025-01-28 17:50:00,1.6,2025-01-28 17:50:00,4,2025-01-28 17:50:00,62.29,2025-01-28 17:50:00,,,0,2025-01-28 17:50:00
249200260,ŁĄCKO,20.439444,49.559722,10.08,2025-01-28 17:50:00,221,2025-01-28 17:50:00,3.3,2025-01-28 17:50:00,5.7,2025-01-28 17:50:00,65.44,2025-01-28 17:50:00,,,0,2025-01-28 17:50:00
249200270,TURBACZ,20.118056,49.544722,-0.18,2025-01-28 17:50:00,,,1.5,2025-01-28 17:50:00,4.4,2025-01-28 17:50:00,91.52,2025-01-28 17:50:00,,,0,2024-11-23 10:20:00
249200280,ŁABOWA,20.858611,49.526111,,,,,,,,,,,,,0,2025-01-28 17:50:00
249200330,STUDZIONKI,20.211944,49.495278,5.38,2025-01-28 17:50:00,134,2025-01-28 17:50:00,3,2025-01-28 17:50:00,7,2025-01-28 17:50:00,82.94,2025-01-28 17:50:00,,,0,2025-01-28 17:50:00
249200340,DĘBNO,20.209444,49.465833,5.59,2025-01-28 17:50:00,86,2025-01-28 17:50:00,2.5,2025-01-28 17:50:00,6.1,2025-01-28 17:50:00,77.24,2025-01-28 17:50:00,,,0,2025-01-28 17:50:00
249200350,HUTA,20.956667,49.465,,,,,,,,,,,,,0,2025-01-28 17:50:00
249200360,MIZERNA,20.281944,49.455278,7.41,2025-01-28 17:50:00,101,2025-01-28 17:50:00,3.8,2025-01-28 17:50:00,7.6,2025-01-28 17:50:00,76.11,2025-01-28 17:50:00,,,0,2025-01-28 17:50:00
249200370,KROŚCIENKO,20.431667,49.445556,,,163,2025-01-28 17:50:00,3.2,2025-01-28 17:50:00,5.6,2025-01-28 17:50:00,67.08,2025-01-28 17:50:00,,,0,2025-01-28 17:50:00
249200420,NIEDZICA,20.315833,49.417778,8.04,2025-01-28 17:50:00,126,2025-01-28 17:50:00,3.7,2025-01-28 17:50:00,8.2,2025-01-28 17:50:00,72.31,2025-01-28 17:50:00,,,0,2025-01-28 17:50:00
249200450,BIAŁKA TATRZAŃSKA,20.107222,49.412222,,,,,,,,,,,,,,
249200480,BUKOWINA TATRZAŃSKA,20.098333,49.3375,7.48,2025-01-28 17:50:00,256,2025-01-28 17:50:00,5.1,2025-01-28 17:50:00,8.1,2025-01-28 17:50:00,62.57,2025-01-28 17:50:00,,,0,2025-01-28 17:50:00
250210130,STASZÓW,21.185,50.595,9.04,2025-01-28 17:50:00,164,2025-01-28 17:50:00,5,2025-01-28 17:50:00,8.1,2025-01-28 17:50:00,68.3,2025-01-28 17:50:00,,,0,2025-01-28 17:50:00
250210160,MAJDAN KRÓLEWSKI,21.751944,50.366667,,,,,,,,,,,,,0,2025-01-28 17:50:00
250210210,MIELEC,21.432778,50.279444,,,,,,,,,,,,,0,2025-01-28 17:50:00
250210220,KOLBUSZOWA,21.745833,50.262222,11.27,2025-01-28 17:50:00,187,2025-01-28 17:50:00,5.8,2025-01-28 17:50:00,10,2025-01-28 17:50:00,55.99,2025-01-28 17:50:00,,,0,2025-01-28 17:50:00
249190530,PILSKO,19.318333,49.541111,0.08,2025-01-28 17:50:00,168,2025-01-28 17:50:00,3.6,2025-01-28 17:50:00,9,2025-01-28 17:50:00,89.32,2025-01-28 17:50:00,,,0,2025-01-12 09:20:00
249200120,ROZDZIELE,20.416111,49.785278,8.32,2025-01-28 17:50:00,164,2025-01-28 17:50:00,2.3,2025-01-28 17:50:00,6,2025-01-28 17:50:00,71.41,2025-01-28 17:50:00,,,0,2025-01-28 17:50:00
249200230,GRYBÓW,20.948056,49.619722,,,,,,,,,,,,,0,2025-01-28 17:50:00
250200360,DĄBROWA TARNOWSKA,20.991111,50.186111,,,,,,,,,,,,,0,2025-01-28 17:50:00
249180390,BRENNA-LEŚNICA,18.903056,49.71,,,,,,,,,,,,,0,2025-01-28 17:50:00
249180520,RUDZICA,18.880833,49.853889,,,,,,,,,,,,,0,2025-01-28 17:50:00
249200960,NOWY TARG-KOWANIEC,20.055,49.486389,,,,,,,,,,,,,0,2025-01-28 17:50:00
254220030,GOŁDAP,22.268611,54.308333,6,2025-01-28 17:50:00,144,2025-01-28 17:50:00,5,2025-01-28 17:50:00,8.4,2025-01-28 17:50:00,83.2,2025-01-28 17:50:00,,,0,2025-01-28 17:50:00
254220060,BANIE MAZURSKIE,22.023056,54.251667,,,,,,,,,,,,,0,2025-01-28 17:50:00
353200272,OLSZTYN,20.421389,53.768611,6,2025-01-28 17:50:00,141,2025-01-28 17:50:00,2.9,2025-01-28 17:50:00,5.5,2025-01-28 17:50:00,92,2025-01-28 17:50:00,,,0,2025-01-28 17:50:00
354210185,KĘTRZYN,21.366667,54.067222,6,2025-01-28 17:50:00,123,2025-01-28 17:50:00,4.3,2025-01-28 17:50:00,6.4,2025-01-28 17:50:00,85,2025-01-28 17:50:00,,,0,2025-01-28 17:50:00
254190050,FROMBORK,19.677222,54.360278,8.24,2025-01-28 17:50:00,124,2025-01-28 17:50:00,2,2025-01-28 17:50:00,4.8,2025-01-28 17:50:00,76.64,2025-01-28 17:50:00,,,0,2025-01-28 17:50:00
254190080,PIERZCHAŁY,19.849167,54.300556,,,,,,,,,,,,,0,2025-01-28 17:50:00
254190160,PASŁĘK,19.636111,54.068611,,,,,,,,,,,,,0,2025-01-28 17:50:00
254200040,BARTOSZYCE,20.797778,54.240278,,,,,,,,,,,,,,
254200050,BORNITY,20.050833,54.184444,,,,,,,,,,,,,0,2025-01-28 17:50:00
254200070,KASZUNY,20.339722,54.158333,,,,,,,,,,,,,0,2025-01-28 17:50:00
254210020,WĘGORZEWO,21.734722,54.223889,,,,,,,,,,,,,0,2025-01-28 17:50:00
254200080,LIDZBARK WARMIŃSKI,20.586111,54.135833,6.09,2025-01-28 17:50:00,144,2025-01-28 17:50:00,0,2025-01-28 17:50:00,0,2025-01-28 17:50:00,87.2,2025-01-28 17:50:00,,,0.1,2025-01-28 17:50:00
250160560,STRONIE ŚLĄSKIE,16.866111,50.3025,,,,,,,,,,,,,0.1,2025-01-28 17:50:00
249220340,WOŁOSATE,22.685833,49.064167,7.72,2025-01-28 17:50:00,140,2025-01-28 17:50:00,4.4,2025-01-28 17:50:00,8.4,2025-01-28 17:50:00,54.41,2025-01-28 17:50:00,,,0,2025-01-28 17:50:00
249220350,WYŻNIAŃSKI WIERCH,22.585833,49.121944,7.2,2025-01-28 17:50:00,111,2025-01-28 17:50:00,5.9,2025-01-28 17:50:00,12.3,2025-01-28 17:50:00,55.4,2025-01-28 17:50:00,,,0,2025-01-28 17:50:00
249220280,STUPOSIANY,22.683056,49.191667,10.3,2025-01-28 17:50:00,185,2025-01-28 17:50:00,4.6,2025-01-28 17:50:00,9.6,2025-01-28 17:50:00,47,2025-01-28 17:50:00,,,0,2025-01-28 17:50:00
249220320,POŁONINA WETLIŃSKA,22.551667,49.157778,5,2025-01-28 17:50:00,198,2025-01-28 17:50:00,16.9,2025-01-28 17:50:00,23.9,2025-01-28 17:50:00,66.4,2025-01-28 17:50:00,,,0.2,2025-01-05 07:50:00
249220190,SAKOWCZYK,22.4475,49.314722,,,,,,,,,,,,,0,2025-01-28 17:50:00
249220150,SOLINA-JAWOR,22.468333,49.4,11.61,2025-01-28 17:50:00,205,2025-01-28 17:50:00,3.7,2025-01-28 17:50:00,8.9,2025-01-28 17:50:00,46.19,2025-01-28 17:50:00,,,0,2025-01-28 17:50:00
249220170,BALIGRÓD-MCHAWA,22.283611,49.353889,10.81,2025-01-28 17:50:00,164,2025-01-28 17:50:00,5.3,2025-01-28 17:50:00,9.2,2025-01-28 17:50:00,48.42,2025-01-28 17:50:00,,,0,2025-01-28 17:50:00
249220180,KOMAŃCZA,22.063333,49.339167,9.6,2025-01-28 17:50:00,136,2025-01-28 17:50:00,1.8,2025-01-28 17:50:00,5.6,2025-01-28 17:50:00,53,2025-01-28 17:50:00,,,0,2025-01-28 17:50:00
249210270,WISŁOK WIELKI,21.999167,49.378611,,,,,,,,,,,,,0,2025-01-28 17:50:00
249220140,SZCZAWNE,22.146944,49.398889,,,,,,,,,,,,,0,2025-01-28 17:50:00
249220060,BIRCZA,22.481111,49.687222,12.11,2025-01-28 17:50:00,171,2025-01-28 17:50:00,4.5,2025-01-28 17:50:00,8.5,2025-01-28 17:50:00,45.21,2025-01-28 17:50:00,,,0,2025-01-28 17:50:00
249210210,PUŁAWY DOLNE,21.907222,49.49,,,,,,,,,,,,,0,2025-01-28 17:50:00
249210190,WISŁOCZEK,21.865556,49.500833,,,,,,,,,,,,,0,2025-01-24 07:50:00
249220110,NOWOTANIEC,22.025278,49.507778,,,,,,,,,,,,,0,2025-01-28 17:50:00
253190370,BĄGART,19.384444,53.991667,,,,,,,,,,,,,0,2025-01-28 17:50:00
253180160,RADZYŃ-FIJEWO,18.946944,53.382778,,,,,,,,,,,,,0.1,2025-01-28 17:50:00
253150330,SŁONOWICE,15.718056,53.716944,,,,,,,,,,,,,0.2,2025-01-28 17:50:00
254170070,BUKOWINA,17.843333,54.422222,6.2,2025-01-28 17:50:00,133,2025-01-28 17:50:00,1.8,2025-01-28 17:50:00,2.8,2025-01-28 17:50:00,92.8,2025-01-28 17:50:00,,,0.1,2025-01-28 17:50:00
252160350,KOPASZEWO,16.818333,52.003333,5.9,2025-01-28 17:50:00,251.3,2025-01-28 17:50:00,1.8,2025-01-28 17:50:00,2.3,2025-01-28 17:50:00,97.7,2025-01-22 10:50:00,,,0,2025-01-28 17:50:00
253210380,TUROWO,21.901667,53.528611,5.2,2025-01-28 17:50:00,100,2025-01-28 17:50:00,2.9,2025-01-28 17:50:00,4.3,2025-01-28 17:50:00,88.6,2025-01-28 17:50:00,,,0,2025-01-28 17:50:00
254170020,SMOŁDZINO,17.201667,54.667222,,,,,,,,,,,,,0.3,2025-01-28 17:50:00
250170840,MESZNO,17.141389,50.4325,10.4,2025-01-28 17:50:00,233.8,2025-01-28 17:50:00,5.2,2025-01-28 17:50:00,7.7,2025-01-28 17:50:00,71.3,2025-01-28 17:50:00,,,0,2025-01-28 17:50:00
253230230,ZARZECZANY,23.684444,53.101667,,,,,,,,,,,,,0,2025-01-28 17:50:00
249210370,ROPICA GÓRNA,21.231389,49.596111,,,,,,,,,,,,,0,2025-01-28 17:50:00
250180750,WĄSICE,18.029722,50.985,,,,,,,,,,,,,0,2025-01-28 17:50:00
250170850,KUJAWY,17.803889,50.436944,,,,,,,,,,,,,0,2025-01-28 17:50:00
250160970,ŚNIEŻNIK,16.8325,50.208333,0,2025-01-28 17:50:00,214,2025-01-28 17:50:00,6.1,2025-01-28 17:50:00,11,2025-01-28 17:50:00,99.1,2025-01-28 17:50:00,,,0.1,2025-01-28 17:50:00
250160980,WOLIBÓRZ,16.578056,50.590556,,,,,,,,,,,,,0,2025-01-28 17:50:00
249190970,SIDZINA,19.726944,49.619444,,,,,,,,,,,,,0,2025-01-28 17:50:00
253220370,SAWINO,22.864722,53.168889,,,,,,,,,,,,,0,2025-01-28 17:50:00
249201060,TYLMANOWA,20.3875,49.518056,,,,,,,,,,,,,0,2025-01-28 17:50:00
250180760,STRZELCE OPOLSKIE,18.311111,50.517778,,,,,,,,,,,,,0,2025-01-28 17:50:00
249190990,JORDANÓW,19.841667,49.643056,,,,,,,,,,,,,0,2025-01-28 17:50:00
250160060,SOBÓTKA,16.759444,50.902222,,,,,,,,,,,,,0,2025-01-28 17:50:00
251150450,PIEŃSK,15.040278,51.26,,,,,,,,,,,,,0,2025-01-28 17:50:00
254170280,STRUSZEWO,17.357222,54.178889,6.2,2025-01-28 17:50:00,144,2025-01-28 17:50:00,1,2025-01-28 17:50:00,2,2025-01-28 17:50:00,96.6,2025-01-28 17:50:00,,,0.2,2025-01-28 17:50:00
251190240,WIERZBOWA,19.079444,51.986667,,,,,,,,,,,,,0,2025-01-28 17:50:00
250161070,JODŁÓW,16.771111,50.172778,,,,,,,,,,,,,0.1,2025-01-28 17:50:00
250160940,NOWA WIEŚ,16.745,50.197778,,,,,,,,,,,,,0.2,2025-01-28 17:50:00
250160960,STARY GIERAŁTÓW,16.9175,50.31,,,,,,,,,,,,,0.1,2025-01-28 17:50:00
249190480,LALIKI,19.016111,49.544722,9.1,2025-01-28 17:50:00,209,2025-01-28 17:50:00,3.7,2025-01-28 17:50:00,8.3,2025-01-28 17:50:00,67.61,2025-01-28 17:50:00,,,0,2025-01-28 17:50:00
249190520,OBIDOWA,19.968611,49.544167,7.1,2025-01-28 17:50:00,146,2025-01-28 17:50:00,4.4,2025-01-28 17:50:00,6.2,2025-01-28 17:50:00,73,2025-01-28 17:50:00,,,0,2025-01-28 17:50:00
249190620,BAŃSKA WYŻNA,19.973333,49.384167,,,,,,,,,,,,,0,2025-01-28 17:50:00
249200180,LIMANOWA,20.418333,49.693611,9.5,2025-01-28 17:50:00,182,2025-01-28 17:50:00,6.6,2025-01-28 17:50:00,10.4,2025-01-28 17:50:00,67,2025-01-28 17:50:00,,,0,2025-01-28 17:50:00
249200210,PÓŁRZECZKI,20.215,49.6525,,,,,,,,,,,,,0,2025-01-28 17:50:00
350190566,KRAKÓW-BALICE,19.795,50.077778,,,199,2025-01-28 17:50:00,1.2,2025-01-28 17:50:00,3.4,2025-01-28 17:50:00,72,2025-01-28 17:50:00,,,0,2025-01-28 17:50:00
349190625,ZAKOPANE,19.960278,49.293889,9.1,2025-01-28 17:50:00,190,2025-01-28 17:50:00,6.6,2025-01-28 17:50:00,13.5,2025-01-28 17:50:00,64.6,2025-01-28 17:50:00,,,0,2024-12-19 11:50:00
250190470,KRAKÓW-WOLA JUSTOWSKA,19.890278,50.063889,4.7,2025-01-28 17:50:00,100,2025-01-28 17:50:00,0.5,2025-01-28 17:50:00,1.4,2025-01-28 17:50:00,80.4,2025-01-28 17:50:00,,,0,2025-01-28 17:50:00
249180180,USTROŃ-RÓWNICA-WIEŚ,18.8525,49.719722,,,,,,,,,,,,,0,2025-01-28 17:50:00
249190320,LUBOŃ WIELKI,19.992222,49.653333,0.04,2025-01-28 17:50:00,127,2025-01-28 17:50:00,0,2025-01-28 17:50:00,0,2025-01-28 17:50:00,79.85,2025-01-28 17:50:00,,,0,2024-11-23 10:20:00
249200020,ŁAZY,20.495278,49.965278,10.13,2025-01-28 17:50:00,132,2025-01-28 17:50:00,4.4,2025-01-28 17:50:00,7,2025-01-28 17:50:00,63.17,2025-01-28 17:50:00,,,0,2025-01-28 17:50:00
249210120,NOWY ŻMIGRÓD,21.533333,49.611667,,,,,,,,,,,,,0,2025-01-28 17:50:00
349200660,NOWY SĄCZ,20.688611,49.627222,10.2,2025-01-28 17:50:00,54,2025-01-28 17:50:00,1,2025-01-28 17:50:00,3,2025-01-28 17:50:00,63,2025-01-28 17:50:00,,,0,2025-01-28 17:50:00
350190560,KATOWICE-MUCHOWIEC,19.032778,50.240556,6.3,2025-01-28 17:50:00,101,2025-01-28 17:50:00,1.4,2025-01-28 17:50:00,3,2025-01-28 17:50:00,69,2025-01-28 17:50:00,,,0,2025-01-28 17:50:00
350200570,KIELCE-SUKÓW,20.692222,50.810556,7.3,2025-01-28 17:50:00,147,2025-01-28 17:50:00,4.2,2025-01-28 17:50:00,6.8,2025-01-28 17:50:00,76,2025-01-28 17:50:00,,,0,2025-01-28 17:50:00
350200575,TARNÓW,20.941944,50.025556,9.6,2025-01-28 17:50:00,147,2025-01-28 17:50:00,4,2025-01-28 17:50:00,7.8,2025-01-28 17:50:00,66.8,2025-01-28 17:50:00,,,0,2025-01-28 17:50:00
350210585,SANDOMIERZ,21.715833,50.696667,9.4,2025-01-28 17:50:00,170,2025-01-28 17:50:00,5.1,2025-01-28 17:50:00,9.7,2025-01-28 17:50:00,63,2025-01-28 17:50:00,,,0,2025-01-28 17:50:00
250190220,ŁAZY,19.383889,50.431111,,,,,,,,,,,,,,
250190310,MACZKI,19.262778,50.258611,,,,,,,,,,,,,0,2025-01-28 17:50:00
250200010,BARTKÓW,20.649722,50.978611,,,,,,,,,,,,,0,2025-01-28 15:50:00
250200110,CISÓW,20.902778,50.758611,,,,,,,,,,,,,0,2025-01-28 17:50:00
250200130,KLISZÓW,20.524722,50.6125,7.97,2025-01-28 17:50:00,117.6,2025-01-28 17:50:00,4.1,2025-01-28 17:50:00,7.4,2025-01-28 17:50:00,77.58,2025-01-28 17:50:00,,,0,2025-01-28 17:50:00
250200210,MIECHÓW,20.032778,50.362778,5.05,2025-01-28 17:50:00,112,2025-01-28 17:50:00,1.2,2025-01-28 17:50:00,3.7,2025-01-28 17:50:00,81.29,2025-01-28 17:50:00,,,0,2025-01-28 17:50:00
250200230,BORUSOWA,20.786944,50.277778,8.58,2025-01-28 17:50:00,134,2025-01-28 17:50:00,5,2025-01-28 17:50:00,6.5,2025-01-28 17:50:00,75.91,2025-01-28 17:50:00,,,0,2025-01-28 17:50:00
250200250,RADZIEMICE,20.230833,50.253333,,,,,,,,,,,,,0,2025-01-28 17:50:00
250200280,IGOŁOMIA,20.256389,50.093611,4.79,2025-01-28 17:50:00,88,2025-01-28 17:50:00,2.4,2025-01-28 17:50:00,4.2,2025-01-28 17:50:00,74.07,2025-01-28 17:50:00,,,0,2025-01-28 17:50:00
250200290,BORZĘCIN,20.71,50.065833,,,,,,,,,,,,,0,2025-01-28 17:50:00
250210070,BARANÓWEK,21.257778,50.77,7.2,2025-01-28 17:50:00,166,2025-01-28 17:50:00,3.5,2025-01-28 17:50:00,6.8,2025-01-28 17:50:00,76.5,2025-01-28 17:50:00,,,0,2025-01-28 17:50:00
250210080,SADKÓW,21.077222,50.736667,,,,,,,,,,,,,0,2025-01-28 17:50:00
250210090,JASTRZĘBSKA WOLA,21.186944,50.724722,,,,,,,,,,,,,0,2025-01-28 17:50:00
250210170,WILCZA WOLA,21.931944,50.341389,,,,,,,,,,,,,0,2025-01-28 17:50:00
250210230,RADOMYŚL WIELKI,21.269722,50.199722,,,,,,,,,,,,,0,2025-01-28 17:50:00
250210240,ZAWADA,21.493333,50.063889,10.54,2025-01-28 17:50:00,166,2025-01-28 17:50:00,5.8,2025-01-28 17:50:00,11.7,2025-01-28 17:50:00,58.16,2025-01-28 17:50:00,,,0,2025-01-28 17:50:00
249210170,BARTNE,21.345556,49.558611,7.3,2025-01-28 17:50:00,141,2025-01-28 17:50:00,4.3,2025-01-28 17:50:00,8.8,2025-01-28 17:50:00,74.6,2025-01-28 17:50:00,,,0,2025-01-28 17:50:00
249210220,WYSZOWADKA,21.420833,49.453889,,,,,,,,,,,,,0,2025-01-28 17:50:00
249210230,WYSOWA,21.1725,49.438056,6.9,2025-01-28 17:50:00,154,2025-01-28 17:50:00,3.6,2025-01-28 17:50:00,5.9,2025-01-28 17:50:00,76.7,2025-01-28 17:50:00,,,0,2025-01-28 17:50:00
249210240,BARWINEK,21.684722,49.431111,9,2025-01-28 17:50:00,235,2025-01-28 17:50:00,4.6,2025-01-28 17:50:00,9.2,2025-01-28 17:50:00,62.9,2025-01-28 17:50:00,,,0,2025-01-28 17:50:00
249210250,JAŚLISKA,21.81,49.44,,,,,,,,,,,,,0,2025-01-28 17:50:00
249210260,TYLICZ,21.008889,49.392222,5.93,2025-01-28 17:50:00,79,2025-01-28 17:50:00,1.1,2025-01-28 17:50:00,3.1,2025-01-28 17:50:00,71.93,2025-01-28 17:50:00,,,0,2025-01-28 17:50:00
250200220,SIELEC,20.420556,50.318611,2.4,2025-01-28 17:50:00,120,2025-01-28 17:50:00,1.1,2025-01-28 17:50:00,2.2,2025-01-28 17:50:00,89,2025-01-28 17:50:00,,,0,2025-01-28 17:50:00
250210180,CHORZELÓW,21.444167,50.348056,10.2,2025-01-28 17:50:00,164,2025-01-28 17:50:00,4.4,2025-01-28 17:50:00,9.9,2025-01-28 17:50:00,64,2025-01-28 17:50:00,,,0,2025-01-28 17:50:00
249190460,SPYTKOWICE GÓRNE,19.761667,49.564444,,,,,,,,,,,,,0,2025-01-28 17:50:00
249200440,JAWORZYNA KRYNICKA,20.895278,49.417778,2.56,2025-01-28 17:50:00,35,2025-01-28 17:50:00,5.3,2025-01-28 17:50:00,11.3,2025-01-28 17:50:00,93.74,2025-01-28 17:50:00,,,0,2025-01-28 17:50:00
250200050,RYKOSZYN,20.411667,50.865556,,,,,,,,,,,,,0,2025-01-28 17:50:00
253170350,CZYCZKOWY,17.733333,53.860833,,,,,,,,,,,,,0,2025-01-28 17:50:00
249190210,ŁODYGOWICE,19.160278,49.724167,,,,,,,,,,,,,0,2025-01-28 17:50:00
249190670,POLANA CHOCHOŁOWSKA,19.788611,49.236944,3.47,2025-01-28 17:50:00,239,2025-01-28 17:50:00,3.8,2025-01-28 17:50:00,7.8,2025-01-28 17:50:00,72.09,2025-01-28 17:50:00,,,0,2024-11-29 13:20:00
249200250,JASIONÓW,20.025833,49.589722,,,,,,,,,,,,,0,2025-01-28 17:50:00
249190870,ŚLEMIEŃ,19.374444,49.715833,,,,,,,,,,,,,0,2025-01-28 17:50:00
250190520,TYCHY,19.001111,50.131944,,,,,,,,,,,,,0,2025-01-28 17:50:00
249200920,PIWNICZNA,20.723056,49.425,9.44,2025-01-28 17:50:00,135,2025-01-28 17:50:00,4.1,2025-01-28 17:50:00,13.4,2025-01-28 17:50:00,66.79,2025-01-28 17:50:00,,,0,2025-01-12 09:20:00
249190890,RADZIECHOWY ,19.155556,49.648611,9.3,2025-01-28 17:50:00,170,2025-01-28 17:50:00,1.1,2025-01-28 17:50:00,3.5,2025-01-28 17:50:00,63,2025-01-28 17:50:00,,,0,2025-01-28 17:50:00
354190160,ELBLĄG-MILEJEWO,19.543611,54.223333,6.6,2025-01-28 17:50:00,121,2025-01-28 17:50:00,3,2025-01-28 17:50:00,5.3,2025-01-28 17:50:00,86,2025-01-28 17:50:00,,,0,2025-01-28 17:50:00
253190070,PRABUTY,19.215,53.739444,7.1,2025-01-28 17:50:00,132,2025-01-28 17:50:00,3.3,2025-01-28 17:50:00,6.1,2025-01-28 17:50:00,86,2025-01-28 17:50:00,,,0,2025-01-28 17:50:00
254190020,NOWA PASŁĘKA,19.746944,54.426111,6.58,2025-01-28 17:50:00,331,2025-01-28 17:50:00,,,,,85.45,2025-01-28 17:50:00,,,0,2025-01-28 17:50:00
254220020,ŻABIN,22.038056,54.321389,,,,,,,,,,,,,0,2024-08-29 07:50:00
249220260,DWERNIK,22.633889,49.220833,,,,,,,,,,,,,,
249210150,IWONICZ-ZDRÓJ,21.788333,49.567222,9.67,2025-01-28 17:50:00,270,2025-01-28 17:50:00,2,2025-01-28 17:50:00,6.4,2025-01-28 17:50:00,57.59,2025-01-28 17:50:00,,,0,2025-01-28 17:50:00
349210670,KROSNO,21.769167,49.706667,10.1,2025-01-28 17:50:00,179,2025-01-28 17:50:00,5.8,2025-01-28 17:50:00,10.8,2025-01-28 17:50:00,55,2025-01-28 17:50:00,,,0,2025-01-28 17:50:00
249210160,ORZECHÓWKA,21.961389,49.716667,,,,,,,,,,,,,0,2025-01-28 17:50:00
249210040,ŻARNOWA,21.816389,49.877778,11.4,2025-01-28 17:50:00,177,2025-01-28 17:50:00,,,11.4,2025-01-28 17:50:00,50.7,2025-01-28 17:50:00,,,0,2025-01-28 17:50:00
249220010,KAŃCZUGA,22.407222,49.985278,,,,,,,,,,,,,0,2025-01-28 17:50:00
249220040,DYNÓW,22.235,49.835278,11.69,2025-01-28 17:50:00,179,2025-01-28 17:50:00,4.5,2025-01-28 17:50:00,7.4,2025-01-28 17:50:00,47.76,2025-01-28 17:50:00,,,0,2025-01-28 17:50:00
349220690,LESKO,22.341667,49.466389,11.3,2025-01-28 17:50:00,188,2025-01-28 17:50:00,5.5,2025-01-28 17:50:00,11.9,2025-01-28 17:50:00,45,2025-01-28 17:50:00,,,0,2025-01-28 17:50:00
349190650,KASPROWY WIERCH,19.981944,49.2325,,,176,2025-01-28 17:50:00,16.6,2025-01-28 17:50:00,32.5,2025-01-28 17:50:00,100,2025-01-28 06:20:00,,,0,2025-01-15 08:20:00
250180670,TRZEBISZYN,18.190833,50.865,,,,,,,,,,,,,0,2025-01-28 17:50:00
254180270,ZELEWO,18.075278,54.623056,,,,,,,,,,,,,0,2025-01-28 17:50:00
251170440,DROŁTOWICE,17.596111,51.335,,,,,,,,,,,,,0,2025-01-28 17:50:00
253180260,LUBIEWO,18.025,53.463889,6.6,2025-01-28 17:50:00,130,2025-01-28 17:50:00,2.7,2025-01-28 17:50:00,3.4,2025-01-28 17:50:00,90.8,2025-01-28 17:50:00,,,0,2025-01-28 17:50:00
253170370,UPIŁKA,17.946944,53.946944,,,,,,,,,,,,,0,2025-01-28 17:50:00
250150550,SZRENICA,15.512222,50.790833,,,,,,,,,,,,,0,2025-01-28 17:50:00
250190790,CHRZANÓW,19.376667,50.1125,,,,,,,,,,,,,0,2025-01-28 17:50:00
250180740,SIERAKOWICE,18.431389,50.265556,,,,,,,,,,,,,0,2025-01-28 17:50:00
253220220,ZAWADY,22.673333,53.156944,,,,,,,,,,,,,0,2025-01-28 17:50:00
253220270,JABŁONOWO-WYPYCHY,22.750278,53.029722,6.7,2025-01-28 17:50:00,114,2025-01-28 17:50:00,3.4,2025-01-28 17:50:00,4.7,2025-01-28 17:50:00,83.38,2025-01-28 17:50:00,,,0,2025-01-28 17:50:00
253230020,RÓŻANYSTOK,23.401389,53.635278,5.6,2025-01-28 17:50:00,136,2025-01-28 17:50:00,2.2,2025-01-28 17:50:00,4.8,2025-01-28 17:50:00,82.8,2025-01-28 17:50:00,,,0,2025-01-28 17:50:00
253230030,JANÓW,23.229444,53.459722,,,,,,,,,,,,,0,2025-01-28 17:50:00
253230060,JAŁÓWKA,23.340556,53.353889,,,,,,,,,,,,,0,2025-01-28 17:50:00
253230110,FASTY,23.025833,53.1775,,,,,,,,,,,,,0,2025-01-28 17:50:00
353200270,MŁAWA,20.361111,53.104167,6.2,2025-01-28 17:50:00,102,2025-01-28 17:50:00,2.4,2025-01-28 17:50:00,5,2025-01-28 17:50:00,92,2025-01-28 17:50:00,,,0,2025-01-28 17:50:00
353210285,OSTROŁĘKA,21.533889,53.065833,7.2,2025-01-28 17:50:00,126,2025-01-28 17:50:00,2.1,2025-01-28 17:50:00,3.3,2025-01-28 17:50:00,80,2025-01-28 17:50:00,,,0,2025-01-28 17:50:00
253220070,BIEBRZA,22.578333,53.650556,5.9,2025-01-28 17:50:00,108,2025-01-28 17:50:00,3.4,2025-01-28 17:50:00,5.9,2025-01-28 17:50:00,83.4,2025-01-28 17:50:00,,,0,2025-01-28 17:50:00
253230160,SUPRAŚL,23.3325,53.210833,4.9,2025-01-28 17:50:00,87,2025-01-28 17:50:00,2.2,2025-01-28 17:50:00,3.1,2025-01-28 17:50:00,83.53,2025-01-28 17:50:00,,,0,2025-01-28 17:50:00
250160130,SZCZAWNO-ZDRÓJ,16.241111,50.806667,6.02,2025-01-28 17:50:00,271,2025-01-28 17:50:00,2.2,2025-01-28 17:50:00,3.2,2025-01-28 17:50:00,90.15,2025-01-28 17:50:00,,,0,2025-01-28 17:50:00
250160150,KAMIENNA GÓRA,16.036111,50.792778,,,,,,,,,,,,,0.1,2025-01-28 17:50:00
250160170,LUBACHÓW,16.428611,50.763889,,,,,,,,,,,,,0,2025-01-28 17:50:00
250160190,BOGUSZÓW-GORCE,16.19,50.749444,,,,,,,,,,,,,0.1,2025-01-28 17:50:00
250160260,DZIERŻONIÓW,16.624167,50.743333,,,,,,,,,,,,,0,2025-01-28 17:50:00
250160290,CHEŁMSKO ŚLĄSKIE,16.07,50.670833,,,,,,,,,,,,,0.1,2025-01-28 17:50:00
250160450,KUDOWA-ZDRÓJ,16.221944,50.438056,,,,,,,,,,,,,0.1,2025-01-28 17:50:00
250160480,SŁOSZÓW,16.379444,50.41,4.86,2025-01-28 17:50:00,254.7,2025-01-28 17:50:00,6.1,2025-01-28 17:50:00,10.8,2025-01-28 17:50:00,92.14,2025-01-28 17:50:00,,,0.1,2025-01-28 17:50:00
250160490,POLANICA-ZDRÓJ,16.518333,50.425278,,,,,,,,,,,,,0,2025-01-28 17:50:00
250160510,OŁDRZYCHOWICE KŁODZKIE,16.734722,50.356667,,,,,,,,,,,,,0,2025-01-28 17:50:00
350170530,OPOLE,17.968889,50.626944,10.9,2025-01-28 17:50:00,133,2025-01-28 17:50:00,2,2025-01-28 17:50:00,3.1,2025-01-28 17:50:00,66,2025-01-28 17:50:00,,,0,2025-01-28 17:50:00
350150500,JELENIA GÓRA,15.788889,50.900278,4.9,2025-01-28 17:50:00,243,2025-01-28 17:50:00,2.1,2025-01-28 17:50:00,3.9,2025-01-28 17:50:00,94,2025-01-28 17:50:00,,,0,2025-01-28 17:50:00
351160415,LEGNICA,16.207778,51.1925,5.8,2025-01-28 17:50:00,276,2025-01-28 17:50:00,2.9,2025-01-28 17:50:00,4.4,2025-01-28 17:50:00,94,2025-01-28 17:50:00,,,0.1,2025-01-28 17:50:00
351160418,LESZNO,16.534722,51.835556,5.6,2025-01-28 17:50:00,235,2025-01-28 17:50:00,1.4,2025-01-28 17:50:00,2.2,2025-01-28 17:50:00,97,2025-01-28 17:50:00,,,0,2025-01-28 17:50:00
350150510,ŚNIEŻKA,15.739722,50.736389,,,243,2025-01-28 17:50:00,4.6,2025-01-28 17:50:00,10,2025-01-28 17:50:00,98,2025-01-28 17:50:00,,,,
351160424,WROCŁAW-STRACHOWICE,16.9,51.103333,6.8,2025-01-28 17:50:00,281,2025-01-28 17:50:00,1.9,2025-01-28 17:50:00,2.8,2025-01-28 17:50:00,92,2025-01-28 17:50:00,,,0,2025-01-28 17:50:00
250160030,BOLKÓW,16.098611,50.925,,,,,,,,,,,,,0.1,2025-01-28 17:50:00
251150110,ŻAGAŃ,15.293611,51.649722,,,,,,,,,,,,,0.1,2025-01-28 17:50:00
250150080,STARA KAMIENICA,15.574167,50.916944,,,,,,,,,,,,,0,2025-01-28 17:50:00
250150340,BOROWICE,15.69,50.789167,,,,,,,,,,,,,,
250190030,SILNICZKA,19.758889,50.921944,3.15,2025-01-28 17:50:00,132,2025-01-28 17:50:00,0.4,2025-01-28 17:50:00,2.3,2025-01-28 17:50:00,92.41,2025-01-28 17:50:00,,,0,2025-01-28 17:50:00
351190469,SULEJÓW,19.866389,51.353333,9.1,2025-01-28 17:50:00,137,2025-01-28 17:50:00,3.3,2025-01-28 17:50:00,6.8,2025-01-28 17:50:00,72,2025-01-28 17:50:00,,,0,2025-01-28 17:50:00
250220050,ZAKŁODZIE,22.861389,50.7575,,,,,,,,,,,,,0,2025-01-28 17:50:00
250230020,NIELISZ,23.038611,50.805,8.65,2025-01-28 17:50:00,92,2025-01-28 17:50:00,2.1,2025-01-28 17:50:00,4,2025-01-28 17:50:00,66.58,2025-01-28 17:50:00,,,0,2025-01-28 17:50:00
251190140,PLUCICE,19.601944,51.203611,,,,,,,,,,,,,0,2025-01-28 17:50:00
249200490,MUSZYNA,20.886389,49.349722,9.4,2025-01-28 17:50:00,222,2025-01-28 17:50:00,2.8,2025-01-28 17:50:00,8.2,2025-01-28 17:50:00,65.1,2025-01-28 17:50:00,,,0,2025-01-28 17:50:00
249200530,ŁYSA POLANA,20.115,49.263611,,,,,,,,,,,,,0,2025-01-28 17:50:00
249200550,DOLINA PIĘCIU STAWÓW,20.047778,49.213611,0.12,2025-01-28 17:50:00,202,2025-01-28 17:50:00,8.4,2025-01-28 17:50:00,17.7,2025-01-28 17:50:00,85.84,2025-01-28 17:50:00,,,0,2025-01-02 06:50:00
249210010,PILZNO,21.308333,49.987222,,,,,,,,,,,,,0,2025-01-28 17:50:00
249210070,BIECZ-GRUDNA,21.295556,49.735278,8.6,2025-01-28 17:50:00,116,2025-01-28 17:50:00,4,2025-01-28 17:50:00,5.9,2025-01-28 17:50:00,64.3,2025-01-28 17:50:00,,,0,2025-01-28 17:50:00
249210080,JASŁO,21.485,49.735556,,,,,,,,,,,,,0,2025-01-28 17:50:00
249210090,GORLICE,21.171111,49.655278,,,,,,,,,,,,,0,2025-01-28 17:50:00
249180160,BRENNA,18.870833,49.753611,9,2025-01-28 03:20:00,148,2025-01-28 17:50:00,7.1,2025-01-28 17:50:00,12.3,2025-01-28 17:50:00,62.4,2025-01-28 17:50:00,,,0,2025-01-28 17:50:00
249180210,SZCZYRK,18.994722,49.703056,0.97,2024-11-13 07:50:00,163,2024-11-13 07:50:00,1,2024-11-13 07:50:00,2.9,2024-11-13 07:50:00,87.95,2024-11-13 07:50:00,,,0,2024-11-13 07:50:00
249180220,CZANTORIA,18.819722,49.683333,,,,,,,,,,,,,0,2025-01-28 17:50:00
249180230,WISŁA,18.861389,49.654722,8.57,2025-01-28 17:50:00,145,2025-01-28 17:50:00,0.6,2025-01-28 17:50:00,2.7,2025-01-28 17:50:00,65.13,2025-01-28 17:50:00,,,0,2025-01-28 17:50:00
249180240,WISŁA-MALINKA,18.9675,49.644722,,,,,,,,,,,,,0,2025-01-28 17:50:00
249190030,LIBERTÓW,19.895,49.9725,10.2,2025-01-28 17:50:00,221,2025-01-28 17:50:00,3.7,2025-01-28 17:50:00,9.4,2025-01-28 17:50:00,56.7,2025-01-28 17:50:00,,,0,2025-01-28 17:50:00
249190050,RADZISZÓW,19.809167,49.939722,,,,,,,,,,,,,0,2025-01-28 17:50:00
249190090,INWAŁD,19.388611,49.867222,6.59,2025-01-28 16:50:00,175,2025-01-28 16:50:00,0.8,2025-01-28 16:50:00,3.7,2025-01-28 16:50:00,63.94,2025-01-28 16:50:00,,,0,2025-01-28 16:50:00
249190130,MIĘDZYBRODZIE BIALSKIE,19.196111,49.789444,11.5,2025-01-28 17:50:00,200,2025-01-28 17:50:00,3.8,2025-01-28 17:50:00,6.9,2025-01-28 17:50:00,59,2025-01-28 17:50:00,,,0,2025-01-28 17:50:00
249190140,LESKOWIEC,19.446667,49.795556,6.41,2025-01-28 17:50:00,172,2025-01-28 17:50:00,0,2025-01-17 10:20:00,0,2025-01-28 17:50:00,75.59,2025-01-28 17:50:00,,,0,2024-12-16 11:20:00
249190170,BOGDANÓWKA,19.788056,49.759444,,,,,,,,,,,,,0,2025-01-28 17:50:00
249190190,MAKÓW PODHALAŃSKI,19.688056,49.725833,11.1,2025-01-28 17:50:00,126,2025-01-28 17:50:00,3.8,2025-01-28 17:50:00,8.4,2025-01-28 17:50:00,60.29,2025-01-28 17:50:00,,,0,2025-01-28 17:50:00
249190240,LACHOWICE KRALE,19.417778,49.688333,9.92,2025-01-28 17:50:00,217,2025-01-28 17:50:00,6.8,2025-01-28 17:50:00,13.4,2025-01-28 17:50:00,64.65,2025-01-28 17:50:00,,,0,2025-01-28 17:50:00
249190280,KRZECZÓW,19.91,49.683611,8.44,2025-01-28 17:50:00,205,2025-01-28 17:50:00,3,2025-01-28 17:50:00,5.1,2025-01-28 17:50:00,67.76,2025-01-28 17:50:00,,,0,2025-01-28 17:50:00
249190350,ZAWOJA,19.518611,49.611667,8.98,2025-01-28 17:50:00,172,2025-01-28 17:50:00,4.6,2025-01-28 17:50:00,9.4,2025-01-28 17:50:00,68.57,2025-01-28 17:50:00,,,0,2025-01-28 17:50:00
249190390,MARKOWE SZCZAWINY,19.516389,49.5875,-0.11,2025-01-28 17:50:00,100,2025-01-28 17:50:00,2.4,2025-01-28 17:50:00,7.7,2025-01-28 17:50:00,85.95,2025-01-28 17:50:00,,,0,2024-12-16 11:20:00
249190410,MILÓWKA,19.079444,49.559167,,,,,,,,,,,,,0,2025-01-28 17:50:00
249190430,SOPOTNIA WIELKA,19.299444,49.581667,,,,,,,,,,,,,0,2025-01-28 17:50:00
249190440,KORBIELÓW,19.348333,49.568611,8.3,2025-01-28 17:50:00,337,2025-01-28 17:50:00,4.7,2025-01-28 17:50:00,8.2,2025-01-28 17:50:00,70.89,2025-01-28 17:50:00,,,0,2025-01-28 17:50:00
249190560,JABŁONKA,19.695833,49.472222,4.8,2025-01-28 17:50:00,210,2025-01-28 17:50:00,1.8,2025-01-28 17:50:00,7.1,2025-01-28 17:50:00,75,2025-01-28 17:50:00,,,0,2025-01-28 17:50:00
249200930,PORONIN,20.035278,49.330278,7.4,2025-01-28 17:50:00,305,2025-01-28 17:50:00,2.2,2025-01-28 17:50:00,5.2,2025-01-28 17:50:00,65,2025-01-28 17:50:00,,,0,2025-01-28 17:50:00
249200980,MSZANA DOLNA,20.054444,49.663611,6.1,2025-01-28 17:50:00,60,2025-01-28 17:50:00,1.7,2025-01-28 17:50:00,2.9,2025-01-28 17:50:00,65,2025-01-28 17:50:00,,,0,2025-01-28 17:50:00
249200990,WRONOWICE,20.590556,49.736389,,,,,,,,,,,,,0,2025-01-28 17:50:00
249210030,TUCHÓW,21.0475,49.903889,,,,,,,,,,,,,0,2025-01-28 17:50:00
250210110,RAKÓW,21.048611,50.671667,7.19,2025-01-28 17:50:00,155,2025-01-28 17:50:00,3,2025-01-28 17:50:00,5.4,2025-01-28 17:50:00,74.16,2025-01-28 17:50:00,,,0,2025-01-28 17:50:00
349190600,BIELSKO-BIAŁA,19.002222,49.806667,11.9,2025-01-28 17:50:00,156,2025-01-28 17:50:00,10.4,2025-01-28 17:50:00,15.2,2025-01-28 17:50:00,58,2025-01-28 17:50:00,,,0,2025-01-28 17:50:00
249180010,PSZCZYNA,18.919167,49.995556,6.9,2025-01-28 16:50:00,205,2025-01-28 16:50:00,1.9,2025-01-28 16:50:00,4.3,2025-01-28 16:50:00,63,2025-01-28 16:50:00,,,0,2025-01-28 16:50:00
249190780,GUBAŁÓWKA,19.929722,49.305556,0.61,2025-01-28 17:50:00,355,2025-01-28 17:50:00,2.1,2025-01-28 17:50:00,5.6,2025-01-28 17:50:00,70.09,2025-01-28 17:50:00,,,0,2025-01-28 17:50:00
249190790,RATUŁÓW,19.884167,49.391667,0.6,2025-01-28 17:50:00,0,2025-01-28 17:50:00,0,2025-01-28 17:50:00,0,2025-01-28 17:50:00,80.9,2025-01-28 17:50:00,,,0,2025-01-28 17:50:00
249190880,WADOWICE,19.511111,49.877222,,,,,,,,,,,,,0,2025-01-28 17:50:00
249200950,SZAFLARY,20.025278,49.416111,,,,,,,,,,,,,0,2025-01-28 17:50:00
249210340,KREMPNA,21.484167,49.516389,,,,,,,,,,,,,0,2025-01-28 17:50:00
250190510,PIWOŃ,19.245,50.484444,,,,,,,,,,,,,0,2025-01-28 17:50:00
249190770,STRACONKA,19.107222,49.793889,,,,,,,,,,,,,0,2025-01-28 17:50:00
249180150,WAPIENICA,18.973333,49.773611,,,,,,,,,,,,,0,2025-01-28 17:50:00
250200370,KONIECZNO,20.034167,50.794167,4.3,2025-01-28 17:50:00,111,2025-01-28 17:50:00,1.8,2025-01-28 17:50:00,3,2025-01-28 17:50:00,82.9,2025-01-28 17:50:00,,,0,2025-01-28 17:50:00
250200380,BIELINY PODUCHOWNE,20.958889,50.849444,,,,,,,,,,,,,0,2025-01-28 17:50:00
249200910,MORSKIE OKO,20.071389,49.201111,14,2024-10-22 09:50:00,282,2025-01-28 17:50:00,7.9,2025-01-28 17:50:00,17.8,2025-01-28 17:50:00,67.7,2025-01-28 17:50:00,,,0,2025-01-28 17:50:00
249190850,RYCERKA GÓRNA,19.008056,49.425833,,,,,,,,,,,,,0,2025-01-28 17:50:00
249190860,SOBLÓWKA,19.145278,49.456667,,,,,,,,,,,,,0,2025-01-28 17:50:00
250190380,BIERUŃ STARY,19.094722,50.084167,7.3,2025-01-28 17:50:00,132,2025-01-28 17:50:00,1.1,2025-01-28 17:50:00,2.4,2025-01-28 17:50:00,66.8,2025-01-28 17:50:00,,,0,2025-01-28 17:50:00
249201010,SIERCZA,20.033889,49.9725,11.06,2025-01-28 17:50:00,351,2025-01-28 17:50:00,2.8,2025-01-28 17:50:00,4.6,2025-01-28 17:50:00,61.34,2025-01-28 17:50:00,,,0,2025-01-28 17:50:00
249190820,KOSZARAWA,19.413889,49.672222,,,,,,,,,,,,,0,2025-01-28 17:50:00
249190830,KOŚCIELISKO-KIRY,19.870833,49.277778,,,,,,,,,,,,,0,2025-01-28 17:50:00
249190840,RAJCZA,19.115278,49.508056,,,,,,,,,,,,,0,2025-01-28 17:50:00
249190810,KALWARIA ZEBRZYDOWSKA,19.685278,49.87,,,,,,,,,,,,,0,2025-01-28 17:50:00
253200080,JEMIOŁOWO,20.299444,53.561667,,,,,,,,,,,,,0,2025-01-28 17:50:00
254190120,KMIECIN,19.163889,54.187778,7.7,2025-01-28 17:50:00,121,2025-01-28 17:50:00,4,2025-01-28 17:50:00,5.7,2025-01-28 17:50:00,89,2025-01-28 17:50:00,,,0,2025-01-28 17:50:00
254190190,ELBLĄG,19.431389,54.161944,8.3,2025-01-28 17:50:00,132,2025-01-28 17:50:00,3.9,2025-01-28 17:50:00,8.1,2024-12-30 05:50:00,79,2025-01-28 17:50:00,,,0,2025-01-28 17:50:00
254190230,ROGITY,19.861389,54.389167,,,,,,,,,,,,,0,2025-01-28 17:50:00
250140020,SIENIAWKA,14.835278,50.893611,,,,,,,,,,,,,0,2025-01-28 17:50:00
251150420,STANKOWICE,15.313611,51.016667,,,,,,,,,,,,,0,2025-01-28 17:50:00
252170390,GNIEZNO II,17.630278,52.523611,6.1,2025-01-28 17:50:00,95,2025-01-28 17:50:00,0.2,2025-01-28 17:50:00,1.4,2025-01-28 17:50:00,98,2025-01-28 17:50:00,,,0,2025-01-28 17:50:00
250160910,SREBRNA GÓRA II,16.668333,50.580833,,,,,,,,,,,,,0,2025-01-28 17:50:00
253170360,PRUSZCZ,17.825556,53.446389,,,,,,,,,,,,,0,2025-01-28 17:50:00
253190380,LUBSTYN,19.845556,53.5275,6.2,2025-01-28 17:50:00,126,2025-01-28 17:50:00,4.8,2025-01-28 17:50:00,7.2,2025-01-28 17:50:00,90.9,2025-01-28 17:50:00,,,0.1,2025-01-28 17:50:00
254160030,SŁAWNO,16.670278,54.351667,,,,,,,,,,,,,0.1,2025-01-28 17:50:00
251190250,BEŁCHATÓW,19.396944,51.379722,8.4,2025-01-28 17:50:00,138.9,2025-01-28 17:50:00,1.3,2025-01-28 17:50:00,2.5,2025-01-28 17:50:00,72.6,2025-01-28 17:50:00,,,0,2025-01-28 17:50:00
249220370,ZATWARNICA,22.552222,49.215833,,,,,,,,,,,,,0,2025-01-28 17:50:00
250180660,RUDA ŚLĄSKA,18.82,50.246944,,,,,,,,,,,,,0,2025-01-28 17:50:00
253180270,SKÓRCZ-RYZOWIE,18.536944,53.788333,,,,,,,,,,,,,0,2025-01-28 17:50:00
253220360,BIERNATKI,22.853333,53.867778,4.8,2025-01-28 17:50:00,128,2025-01-28 17:50:00,3.2,2025-01-28 17:50:00,5.1,2025-01-28 17:50:00,86.1,2025-01-28 17:50:00,,,0,2025-01-28 17:50:00
249201030,DOBRA,20.273333,49.7275,,,,,,,,,,,,,0,2025-01-28 17:50:00
251210320,KAZANÓW,21.4675,51.278333,,,,,,,,,,,,,0,2025-01-28 17:50:00
250190530,KATOWICE PYRZOWICE,19.095,50.477222,6.5,2025-01-28 17:50:00,106,2025-01-28 17:50:00,2.8,2025-01-28 17:50:00,4.3,2025-01-28 17:50:00,77,2025-01-28 17:50:00,,,,
250190780,BĘDKOWICE,19.769444,50.179167,,,,,,,,,,,,,0,2025-01-28 17:50:00
250161030,RZECZKA,16.4475,50.676667,,,,,,,,,,,,,0,2025-01-28 17:50:00
252230290,BOLESTY,23.090833,52.736667,,,,,,,,,,,,,0,2025-01-28 17:50:00
250180110,DOBRODZIEŃ,18.425556,50.729167,,,,,,,,,,,,,0,2025-01-28 17:50:00
249180620,KOŃCZYCE MAŁE,18.638889,49.852222,,,,,,,,,,,,,0,2025-01-28 17:50:00
249210420,SMEREKOWIEC,21.233889,49.505278,,,,,,,,,,,,,0,2025-01-28 17:50:00
249180590,RUPTAWA,18.589444,49.936667,,,,,,,,,,,,,0,2025-01-28 17:50:00
252220050,BRAŃSK,22.826389,52.741944,,,,,,,,,,,,,0,2025-01-28 17:50:00
252220120,TONKIELE,22.565278,52.412222,,,,,,,,,,,,,0,2025-01-28 17:50:00
253170320,LIPA,17.2575,53.050556,,,,,,,,,,,,,0,2025-01-28 17:50:00
253170340,IWNO,17.418056,53.026667,,,,,,,,,,,,,0,2025-01-28 17:50:00
250190880,SUŁOSZOWA,19.74,50.258333,,,,,,,,,,,,,0,2025-01-28 17:50:00
249190060,SIEPRAW,19.964722,49.904722,,,,,,,,,,,,,0,2025-01-28 17:50:00
250150560,MAŁA KOPA,15.726111,50.743611,,,,,,,,,,,,,0,2025-01-28 17:50:00
254190070,TOLKMICKO,19.5225,54.325278,,,,,,,,,,,,,0,2025-01-28 17:50:00
250190810,LUBSZA,19.004167,50.609722,,,,,,,,,,,,,0,2025-01-28 17:50:00
250180720,MODZURÓW,18.138889,50.160556,,,,,,,,,,,,,0,2025-01-28 17:50:00
251150430,BIAŁKÓW,15.021667,51.776944,,,,,,,,,,,,,0,2025-01-28 17:50:00
250160010,STRZEGOM,16.376389,50.963889,,,,,,,,,,,,,0,2025-01-28 17:50:00
252140210,BOCZÓW,14.938611,52.316944,,,,,,,,,,,,,0,2025-01-28 17:50:00
250180560,ŻORY,18.696389,50.053611,,,,,,,,,,,,,0,2025-01-28 17:50:00
254230040,PODWOJPONIE,23.119444,54.300278,,,,,,,,,,,,,0,2025-01-28 17:50:00
251150440,SIECIEBORZYCE,15.536944,51.665556,,,,,,,,,,,,,0,2025-01-28 17:50:00
252170420,ROGOWO,17.643333,52.7325,5.8,2025-01-28 17:50:00,349,2025-01-28 17:50:00,0.8,2025-01-28 17:50:00,1,2025-01-28 17:50:00,79.7,2025-01-28 17:50:00,,,0,2025-01-28 17:50:00
252230250,ZAMOSZE,23.912778,52.815278,,,,,,,,,,,,,0,2025-01-28 17:50:00
253220330,MARIANOWO II,22.105833,53.211944,6.29,2025-01-28 17:50:00,132,2025-01-28 17:50:00,2.2,2025-01-28 17:50:00,4.3,2025-01-28 17:50:00,84.75,2025-01-28 17:50:00,,,0,2025-01-28 17:50:00
253210350,TYSZKI-WĄDOŁOWO,21.984167,53.447778,,,,,,,,,,,,,0,2025-01-28 17:50:00
252230240,NAREWKA,23.725,52.863611,,,,,,,,,,,,,0,2025-01-28 17:50:00
252230230,NAREW,23.522778,52.916667,,,,,,,,,,,,,0,2025-01-28 17:50:00
253210290,PTAKI,21.791667,53.393056,,,,,,,,,,,,,0,2025-01-28 17:50:00
253210280,DOBRYLAS,21.864722,53.285278,,,,,,,,,,,,,0,2025-01-28 17:50:00
251160170,CHWAŁKOWICE,16.613056,51.448333,5.3,2025-01-28 17:50:00,240,2025-01-28 17:50:00,2.4,2025-01-28 17:50:00,3.6,2025-01-28 17:50:00,92,2025-01-28 17:50:00,,,0,2025-01-28 17:50:00
251170290,NAMYSŁÓW,17.715833,51.065833,9.35,2025-01-28 17:50:00,146.5,2025-01-28 17:50:00,1.7,2025-01-28 17:50:00,3.1,2025-01-28 17:50:00,71.77,2025-01-28 17:50:00,,,0,2025-01-28 17:50:00
250150030,POBIEDNA,15.308611,50.951944,,,,,,,,,,,,,0.1,2025-01-28 17:50:00
250150130,CIECHANOWICE,15.977222,50.867222,,,,,,,,,,,,,0,2025-01-28 17:50:00
350160520,KŁODZKO,16.614167,50.436944,7.4,2025-01-28 17:50:00,247,2025-01-28 17:50:00,8.3,2025-01-28 17:50:00,11.9,2025-01-28 17:50:00,86,2025-01-28 17:50:00,,,0,2025-01-28 17:50:00
251150340,GRYFÓW ŚLĄSKI,15.409444,51.026667,,,,,,,,,,,,,0.1,2025-01-28 17:50:00
250160310,MIEROSZÓW,16.175833,50.6625,,,,,,,,,,,,,0.2,2025-01-28 17:50:00
250150060,RĘBISZÓW,15.448889,50.951667,,,,,,,,,,,,,0,2025-01-28 17:50:00
250150050,PILCHOWICE,15.64,50.962778,,,,,,,,,,,,,0,2025-01-28 17:50:00
251150350,LUBOMIERZ,15.502778,51.015278,,,,,,,,,,,,,0,2025-01-28 17:50:00
249190640,NOWE BYSTRE,19.929167,49.332222,2.64,2025-01-28 17:50:00,126,2025-01-28 17:50:00,2.4,2025-01-28 17:50:00,4.3,2025-01-28 17:50:00,69.22,2025-01-28 17:50:00,,,0,2025-01-28 17:50:00
249190680,HALA ORNAK,19.859444,49.229167,7.18,2025-01-28 17:50:00,155,2025-01-28 17:50:00,4.1,2025-01-28 17:50:00,11.1,2025-01-28 17:50:00,74.98,2025-01-28 17:50:00,,,0,2024-11-28 20:20:00
249200050,STRADOMKA,20.309167,49.920833,,,,,,,,,,,,,0,2025-01-28 17:50:00
249200060,GNOJNIK,20.588333,49.895278,,,,,,,,,,,,,0,2025-01-28 17:50:00
249200070,DOBCZYCE,20.070556,49.8775,6.65,2025-01-28 17:50:00,303,2025-01-28 17:50:00,0.8,2025-01-28 17:50:00,2.5,2025-01-28 17:50:00,69.25,2025-01-28 17:50:00,,,0,2025-01-28 17:50:00
249200110,JODŁOWNIK,20.224722,49.770833,8.49,2025-01-28 17:50:00,126.5,2025-01-28 17:50:00,2.4,2025-01-28 17:50:00,5.2,2025-01-28 17:50:00,70,2025-01-28 17:50:00,,,0,2025-01-28 17:50:00
249200130,JASTRZĘBIA,20.896389,49.786389,9.71,2025-01-28 17:50:00,121,2025-01-28 17:50:00,3.4,2025-01-28 17:50:00,6.8,2025-01-28 17:50:00,64.9,2025-01-28 17:50:00,,,0,2025-01-28 17:50:00
249200140,WĘGLÓWKA,20.074444,49.750278,,,,,,,,,,,,,0,2025-01-28 17:50:00
249220120,LESZCZOWATE,22.547778,49.507222,11.24,2025-01-28 17:50:00,260,2025-01-28 17:50:00,1.4,2025-01-28 17:50:00,3.9,2025-01-28 17:50:00,47.53,2025-01-28 17:50:00,,,0,2025-01-28 17:50:00
249220070,RYBOTYCZE,22.64,49.654444,,,,,,,,,,,,,0,2025-01-28 17:50:00
349220695,PRZEMYŚL,22.771944,49.804167,12.2,2025-01-28 17:50:00,172,2025-01-28 17:50:00,3.7,2025-01-28 17:50:00,6.7,2025-01-28 17:50:00,44,2025-01-28 17:50:00,,,0,2025-01-28 17:50:00
350220580,RZESZÓW-JASIONKA,22.042222,50.110833,,,176,2025-01-28 17:50:00,4.5,2025-01-28 17:50:00,8.4,2025-01-28 17:50:00,54,2025-01-28 17:50:00,,,0,2025-01-28 17:50:00
250230140,WIELKIE OCZY,23.158333,50.017778,9.2,2025-01-28 17:50:00,154,2025-01-28 17:50:00,3.9,2025-01-28 17:50:00,4.9,2025-01-28 17:50:00,54.26,2025-01-28 17:50:00,,,0,2025-01-28 17:50:00
250230130,FUTORY,23.046389,50.196667,,,,,,,,,,,,,0,2025-01-28 17:50:00
250230170,JĘDRZEJÓWKA,23.342778,50.329722,,,,,,,,,,,,,0,2025-01-28 17:50:00
250220140,TARNOGRÓD,22.756667,50.356667,10.2,2025-01-28 17:50:00,178,2025-01-28 17:50:00,3.9,2025-01-28 17:50:00,5,2025-01-28 17:50:00,60.72,2025-01-28 17:50:00,,,0,2025-01-28 17:50:00
250230060,JÓZEFÓW,23.058333,50.4875,,,,,,,,,,,,,0,2025-01-28 17:50:00
250220130,BRODZIAKI,22.79,50.506667,,,,,,,,,,,,,0,2025-01-28 17:50:00
250220120,JAROCIN,22.306667,50.568611,10.27,2025-01-28 17:50:00,157,2025-01-28 17:50:00,3.1,2025-01-28 17:50:00,5,2025-01-28 17:50:00,64.4,2025-01-28 17:50:00,,,0,2025-01-28 17:50:00
250220080,FRAMPOL,22.666111,50.675,,,,,,,,,,,,,0,2025-01-28 17:50:00
250230160,CIESZANÓW,23.118056,50.233611,9.1,2025-01-28 17:50:00,159,2025-01-28 17:50:00,3.2,2025-01-28 17:50:00,3.7,2025-01-28 17:50:00,62,2025-01-28 17:50:00,,,0,2025-01-28 17:50:00
250220220,JAROSŁAW,22.7025,50.021111,,,,,,,,,,,,,0,2025-01-17 07:50:00
251160190,LUBIN,16.216944,51.411944,,,,,,,,,,,,,,
249180550,CIESZYN,18.609167,49.775,10.73,2025-01-28 17:50:00,124,2025-01-28 17:50:00,4,2025-01-28 17:50:00,6.9,2025-01-28 17:50:00,62.47,2025-01-28 17:50:00,,,0,2025-01-28 17:50:00
349200628,HALA GĄSIENICOWA,20.005833,49.243889,2.8,2025-01-28 17:50:00,179,2025-01-28 17:50:00,9.4,2025-01-28 17:50:00,19.9,2025-01-28 17:50:00,83.7,2025-01-28 17:50:00,,,0,2025-01-28 17:50:00
252150270,BABIMOST,15.803333,52.143611,6.2,2025-01-28 17:50:00,261,2025-01-28 17:50:00,1.6,2025-01-28 17:50:00,2.6,2025-01-28 17:50:00,100,2025-01-28 17:50:00,,,0,2025-01-28 17:50:00
250150530,ŚWIERADÓW-ZDRÓJ II,15.325556,50.905833,,,276.6,2025-01-28 17:50:00,2.4,2025-01-28 17:50:00,5.1,2025-01-28 17:50:00,96.16,2025-01-28 17:50:00,,,0.1,2025-01-28 17:50:00
253140060,GOLENIÓW,14.888333,53.593889,4.8,2025-01-28 17:50:00,266,2025-01-28 17:50:00,0.2,2025-01-28 17:50:00,0.3,2025-01-28 17:50:00,96,2025-01-28 17:50:00,,,0,2025-01-11 15:50:00
249210140,DUKLA,21.680556,49.566944,9.9,2025-01-28 17:50:00,177,2025-01-28 17:50:00,6.7,2025-01-28 17:50:00,11.7,2025-01-28 17:50:00,60,2025-01-28 17:50:00,,,0,2025-01-28 17:50:00
250210260,SĘDZISZÓW MAŁOPOLSKI,21.703611,50.078056,,,,,,,,,,,,,0,2025-01-28 12:50:00
249180170,BŁATNIA,18.9425,49.746944,,,,,,,,,,,,,0,2025-01-28 17:50:00
249190150,STRÓŻA,19.9175,49.796389,,,,,,,,,,,,,0,2025-01-28 17:50:00
249200470,KRYNICA,20.960833,49.407778,6.7,2025-01-28 17:50:00,127,2025-01-28 17:50:00,2.1,2025-01-28 17:50:00,4.9,2025-01-28 17:50:00,71,2025-01-28 17:50:00,,,0,2025-01-28 17:50:00
249220230,LUTOWISKA,22.683333,49.243056,,,,,,,,,,,,,0,2024-10-29 07:20:00
249220310,WETLINA,22.471944,49.144722,8.93,2025-01-28 17:50:00,103,2025-01-28 17:50:00,0,2025-01-28 17:50:00,0,2025-01-28 17:50:00,55.35,2025-01-28 17:50:00,,,0,2025-01-28 17:50:00
249220270,KALNICA,22.424167,49.197222,,,,,,,,,,,,,0,2025-01-28 17:50:00
249220220,POLANA,22.576667,49.303333,13.29,2025-01-28 17:50:00,203,2025-01-28 17:50:00,5.1,2025-01-28 17:50:00,11.1,2025-01-28 17:50:00,42.69,2025-01-28 17:50:00,,,0,2025-01-28 17:50:00
249220290,ROZTOKI GÓRNE,22.314444,49.153333,3.7,2025-01-28 17:50:00,161,2025-01-28 17:50:00,3.9,2025-01-28 17:50:00,9.4,2025-01-28 17:50:00,57.38,2025-01-28 17:50:00,,,0,2024-10-23 18:20:00
249220240,ŻUBRACZE,22.271667,49.208889,8.5,2025-01-28 17:50:00,72,2025-01-28 17:50:00,1.8,2025-01-28 17:50:00,5.5,2025-01-28 17:50:00,57.26,2025-01-28 17:50:00,,,0,2025-01-28 17:50:00
249220250,CISNA,22.331111,49.212778,,,,,,,,,,,,,0,2025-01-28 17:50:00
249220080,SANOK-TREPCZA,22.185278,49.584722,11.14,2025-01-28 17:50:00,164,2025-01-28 17:50:00,4.1,2025-01-28 17:50:00,7.6,2025-01-28 17:50:00,47.44,2025-01-28 17:50:00,,,0,2025-01-28 17:50:00
249180070,MAZAŃCOWICE,18.969444,49.8625,,,,,,,,,,,,,,
249180090,RUDZICA,18.8825,49.853333,,,,,,,,,,,,,,
249180130,CIESZYN,18.648333,49.754167,,,,,,,,,,,,,,
249180630,KICZYCE,18.799722,49.821667,,,,,,,,,,,,,,
249190010,JAWISZOWICE,19.141944,49.959722,,,,,,,,,,,,,,
249190080,WADOWICE,19.518611,49.881944,,,,,,,,,,,,,,
249190220,ŚLEMIEŃ,19.353056,49.7175,,,,,,,,,,,,,,
249190230,LUBIEŃ,19.97,49.720833,,,,,,,,,,,,,,
249190270,OSIELEC,19.738889,49.678889,,,,,,,,,,,,,,
249190290,LIPOWA,19.076667,49.666111,,,,,,,,,,,,,,
249190310,PEWEL MAŁA,19.305833,49.660833,,,,,,,,,,,,,,
249190340,KOSZARAWA,19.404444,49.655833,,,,,,,,,,,,,,
249190380,KAMESZNICA,19.064444,49.57,,,,,,,,,,,,,,
249190420,ŻABNICA,19.1875,49.560833,,,,,,,,,,,,,,
249190470,RABA WYŻNA,19.881667,49.564722,,,,,,,,,,,,,,
249190540,RAJCZA,19.105278,49.506111,,,,,,,,,,,,,,
249190580,RYCERKA GÓRNA,19.008333,49.426389,,,,,,,,,,,,,,
249190610,RATUŁÓW,19.883611,49.391667,,,,,,,,,,,,,,
249190630,WITÓW,19.825,49.3275,,,,,,,,,,,,,,
249190660,KOŚCIELISKO-KIRY,19.869444,49.2775,,,,,,,,,,,,,,
249190750,SOBLÓWKA,19.148333,49.4375,,,,,,,,,,,,,,
249190920,LIPNICA WIELKA,19.545278,49.537778,,,,,,,,,,,,,,
249190980,SUCHA BESKIDZKA,19.605833,49.753889,,,,,,,,,,,,,0,2025-01-28 17:50:00
249200080,ŁAPANÓW,20.283611,49.875278,,,,,,,,,,,,,,
249200290,OCHOTNICA GÓRNA,20.244722,49.510278,,,,,,,,,,,,,,
249200310,KOWANIEC,20.046944,49.490833,,,,,,,,,,,,,,
249200380,SZAFLARY,20.026389,49.425278,,,,,,,,,,,,,,
249200540,HALA GĄSIENICOWA,20.005833,49.243889,,,,,,,,,,,,,,
249200570,TRZEMEŚNIA,20.012778,49.8125,,,,,,,,,,,,,,
249210130,ZBOISKA,21.695833,49.5775,,,,,,,,,,,,,,
249210180,KREMPNA,21.489444,49.515833,,,,,,,,,,,,,,
249210280,KUNKOWA,21.124722,49.55,,,,,,,,,,,,,0,2025-01-28 17:50:00
249220130,BRZEGI DOLNE,22.621111,49.443333,,,,,,,,,,,,,,
249220160,TELEŚNICA OSZWAROWA,22.531111,49.380278,,,,,,,,,,,,,,
249220210,TERKA,22.426944,49.297222,,,,,,,,,,,,,,
249220330,TARNAWA NIŻNA,22.791389,49.124722,,,,,,,,,,,,,,
249220360,BUKOWIEC,22.413611,49.305833,11.53,2025-01-28 17:50:00,155,2025-01-28 17:50:00,4.4,2025-01-28 17:50:00,8.1,2025-01-28 17:50:00,45.04,2025-01-28 17:50:00,,,0,2024-10-17 05:20:00
250150090,ŚWIERADÓW-ZDRÓJ,15.358611,50.898333,,,,,,,,,,,,,,
250160270,WALIM,16.439167,50.702778,,,,,,,,,,,,,,
250160350,SREBRNA GÓRA,16.664722,50.577222,,,,,,,,,,,,,,
250160530,ZIELENIEC,16.394167,50.33,,,,,,,,,,,,,,
250160610,BOLESŁAWÓW,16.890833,50.254722,7,2025-01-28 17:50:00,190,2025-01-28 17:50:00,3.6,2025-01-28 17:50:00,9.6,2025-01-28 17:50:00,82,2025-01-28 17:50:00,,,0,2025-01-28 17:50:00
250160630,MIĘDZYGÓRZE,16.773611,50.218611,,,,,,,,,,,,,0.2,2025-01-28 17:50:00
250170250,OTMUCHÓW,17.166389,50.472222,,,,,,,,,,,,,,
250180250,BRYNICA,18.998889,50.471667,,,,,,,,,,,,,,
250180650,PŁAWNIOWICE,18.482222,50.376389,,,,,,,,,,,,,0,2025-01-28 17:50:00
250190150,BONOWICE,19.793611,50.621111,,,,,,,,,,,,,,
250190160,LGOTA GÓRNA,19.235278,50.600833,,,,,,,,,,,,,,
250190180,PIWOŃ,19.251111,50.483056,,,,,,,,,,,,,,
250190290,OLEWIN,19.603611,50.276944,,,,,,,,,,,,,,
250190840,ROKITNO SZLACHECKIE,19.431111,50.435278,,,,,,,,,,,,,0,2025-01-28 17:50:00
250210120,KLIMONTÓW,21.450278,50.653333,,,,,,,,,,,,,,
250210280,WOLA RANIŻOWSKA,21.992222,50.301111,,,,,,,,,,,,,0,2025-01-28 17:50:00
250210330,KLIMONTÓW,21.463611,50.6525,,,,,,,,,,,,,0,2025-01-28 17:50:00
250220210,JAROSŁAW,22.696389,50.018333,,,,,,,,,,,,,,
251140060,SOBOLICE,14.975,51.388333,,,,,,,,,,,,,,
251150030,NOWOGRÓD BOBRZAŃSKI,15.253056,51.799444,,,,,,,,,,,,,0,2025-01-28 17:50:00
251150180,TOMASZÓW BOLESŁAWIECKI,15.6775,51.276389,,,,,,,,,,,,,,
251150390,ZŁOTNIKI LUBAŃSKIE,15.340556,51.013889,,,,,,,,,,,,,,
251150410,ŚWIERZAWA,15.888889,51.016944,,,,,,,,,,,,,,
251160420,PYSZĄCA,16.679722,51.256389,,,,,,,,,,,,,,
251170030,WITASZYCE,17.553333,51.945556,,,,,,,,,,,,,,
251170430,OSTRZESZÓW II,17.915556,51.434444,,,,,,,,,,,,,0,2025-01-28 17:50:00
251180090,SIERADZ,18.687222,51.593056,,,,,,,,,,,,,,
252140150,MASZEWO,14.918889,52.069722,,,,,,,,,,,,,0,2025-01-28 17:50:00
252140160,TRZCIŃSKO-ZDRÓJ,14.588056,52.964444,,,,,,,,,,,,,,
252150070,DREZDENKO,15.841111,52.854722,,,,,,,,,,,,,,
252170110,GNIEZNO,17.531944,52.5575,,,,,,,,,,,,,,
252180060,PAKOŚĆ,18.0925,52.799444,,,,,,,,,,,,,,
252180310,RADOSZEWICE,18.706111,52.361944,,,,,,,,,,,,,,
252230040,NAREW,23.519167,52.914722,,,,,,,,,,,,,,
252230060,NAREWKA,23.728056,52.871667,,,,,,,,,,,,,,
252230080,NOWE MASIEWO,23.897222,52.833889,,,,,,,,,,,,,,
252230110,HAJNÓWKA,23.560278,52.7325,,,,,,,,,,,,,,
253150020,WITNO,15.063056,53.944444,,,,,,,,,,,,,,
253160040,GRZMIĄCA,16.439167,53.835833,,,,,,,,,,,,,,
253160260,WICEWO,16.123611,53.8875,,,,,,,,,,,,,0.3,2025-01-28 17:50:00
253170030,RÓŻKI-DĘBIE,17.148056,53.891111,,,,,,,,,,,,,,
253170330,SITOWIEC,17.754167,53.368889,6.3,2025-01-28 17:50:00,123,2025-01-28 17:50:00,1.6,2025-01-28 17:50:00,2.4,2025-01-28 17:50:00,92.6,2025-01-28 17:50:00,,,0,2025-01-28 17:50:00
253180170,NOWY JASINIEC,18.037222,53.348333,,,,,,,,,,,,,,
253190260,OSTROWITE,19.274167,53.42,,,,,,,,,,,,,,
253210130,SZCZYTNO,21.012222,53.576944,,,,,,,,,,,,,,
253210180,PTAKI,21.794722,53.390556,,,,,,,,,,,,,,
253210220,DOBRYLAS,21.827222,53.296389,,,,,,,,,,,,,,
253220210,TYKOCIN,22.770556,53.204444,,,,,,,,,,,,,,
253230170,NOWOSIÓŁKI,23.526389,53.175,,,,,,,,,,,,,,
254150050,BIAŁOGARD,15.975,54.004167,,,,,,,,,,,,,0.5,2025-01-28 17:50:00
254160040,JEŻYCZKI,16.390556,54.334722,,,,,,,,,,,,,,
254160060,SIERAKOWO,16.516389,54.216389,,,,,,,,,,,,,0.5,2025-01-28 17:50:00
254160080,POLANÓW,16.683056,54.118611,5.3,2025-01-28 17:50:00,0,2025-01-28 17:50:00,0,2025-01-28 17:50:00,0,2025-01-28 17:50:00,99,2025-01-28 17:50:00,,,0.5,2025-01-28 17:50:00
254160130,CIECHOLUB,16.874444,54.172778,,,,,,,,,,,,,0.2,2025-01-28 17:50:00
254160140,KŁANINO,16.486111,54.0275,,,,,,,,,,,,,0.5,2025-01-28 17:50:00
254170130,NIEZABYSZEWO,17.423333,54.138333,,,,,,,,,,,,,,
254170190,SŁUPSK,17.035556,54.463333,,,,,,,,,,,,,,
254170210,BORUCINO,17.991667,54.253611,6.4,2025-01-28 17:50:00,38,2025-01-28 17:50:00,0.7,2025-01-28 17:50:00,1.6,2025-01-28 17:50:00,94.7,2025-01-28 17:50:00,,,0,2025-01-28 17:50:00
254180130,GORĘCZYNO,18.1625,54.261944,,,,,,,,,,,,,,
351160425,WROCŁAW,16.881667,51.113611,7.2,2025-01-28 17:50:00,260,2025-01-28 17:50:00,1.1,2025-01-28 17:50:00,2.7,2025-01-28 17:50:00,91,2025-01-28 17:50:00,,,0,2025-01-28 17:50:00
249200320,ŁOPUSZNA,20.123611,49.474167,,,,,,,,,,,,,,
254200140,OSIEKA,20.7825,54.208889,,,,,,,,,,,,,0,2025-01-28 17:50:00
251230240,STUDZIANKA,23.214722,51.931667,,,,,,,,,,,,,0,2025-01-28 17:50:00
254220120,PRZEROŚL,22.659722,54.258056,,,,,,,,,,,,,0,2025-01-28 17:50:00
251150080,GRABIK,15.111389,51.6525,,,,,,,,,,,,,0.1,2025-01-28 15:20:00
249201020,OSTROWSKO,20.093889,49.48,5.9,2025-01-28 17:50:00,89,2025-01-28 17:50:00,4.4,2025-01-28 17:50:00,7.5,2025-01-28 17:50:00,75.6,2025-01-28 17:50:00,,,0,2025-01-28 17:50:00
253210390,MIKOSZE-OSADA,21.907778,53.816111,,,,,,,,,,,,,0,2025-01-28 17:50:00
250180540,RYDUŁTOWY,18.429444,50.050278,,,,,,,,,,,,,0,2025-01-28 17:50:00
250180210,ZIELONA,18.968056,50.549167,,,,,,,,,,,,,0,2025-01-28 17:50:00
254170060,MIKOROWO,17.580556,54.408333,,,,,,,,,,,,,0.4,2025-01-28 17:50:00
252160370,WRONKI,16.373056,52.6925,,,,,,,,,,,,,0,2025-01-28 17:50:00
250150580,JARKOWICE,15.873611,50.736389,,,,,,,,,,,,,0,2025-01-28 17:50:00
250180680,CZERWIONKA-LESZCZYNY,18.663611,50.154444,,,,,,,,,,,,,0,2025-01-28 17:50:00
252180370,KLECZEW,18.170556,52.386944,6.5,2025-01-28 17:50:00,65,2025-01-28 17:50:00,0.3,2025-01-28 17:50:00,1.6,2025-01-28 17:50:00,87,2025-01-28 17:50:00,,,0,2025-01-28 17:50:00
250180730,BIERAWA,18.244722,50.282222,,,,,,,,,,,,,0,2025-01-28 17:50:00
353180255,KWIDZYN,18.871667,53.734167,7.4,2025-01-28 17:50:00,167,2025-01-28 17:50:00,3.3,2025-01-28 17:50:00,6,2025-01-28 17:50:00,86.7,2025-01-28 17:50:00,,,0,2025-01-28 17:50:00
250240070,GOŁĘBIE,24.083056,50.634722,,,,,,,,,,,,,0,2025-01-28 17:50:00
250230190,KOLONIA NOWOSIÓŁKI,23.916111,50.541667,,,,,,,,,,,,,0,2025-01-28 17:50:00
253210410,TARGOWO,21.028611,53.695278,,,,,,,,,,,,,0,2025-01-28 17:50:00
250170770,UNIKOWICE,17.008611,50.4425,,,,,,,,,,,,,0,2025-01-28 17:50:00
250180450,ZWONOWICE,18.437778,50.142778,,,,,,,,,,,,,0,2025-01-28 17:50:00
250140010,WYSZKÓW,14.993056,50.9675,,,,,,,,,,,,,,
254180280,SZEMUD,18.213611,54.493056,6.5,2025-01-28 17:50:00,105,2025-01-28 17:50:00,1.2,2025-01-28 17:50:00,2.2,2025-01-28 17:50:00,91.3,2025-01-28 17:50:00,,,0,2025-01-28 17:50:00
253150320,LUBIANA,15.323333,53.104444,,,,,,,,,,,,,0.1,2025-01-28 17:50:00
251150220,NOWOGRODZIEC,15.395278,51.195556,,,,,,,,,,,,,0,2025-01-28 17:50:00
250160930,KARŁÓW,16.336944,50.474167,,,,,,,,,,,,,0.1,2025-01-28 17:50:00
254150060,GĄSKI,15.917222,54.238056,5.4,2025-01-28 17:50:00,100,2025-01-28 17:50:00,0.9,2025-01-28 17:50:00,1,2025-01-28 17:50:00,96,2025-01-28 17:50:00,,,0,2025-01-28 17:50:00
253150360,KINOWO,15.451389,53.975,,,,,,,,,,,,,0.1,2025-01-28 17:50:00
250150180,JAGNIĄTKÓW,15.611944,50.82,,,,,,,,,,,,,0,2025-01-28 17:50:00
250200520,DOBROWODA,20.765556,50.394444,8.7,2025-01-28 17:50:00,130,2025-01-28 17:50:00,5,2025-01-28 17:50:00,7,2025-01-28 17:50:00,73.1,2025-01-28 17:50:00,,,0,2025-01-28 17:50:00
249210390,UŚCIE GORLICKIE,21.131944,49.526944,8.3,2025-01-28 17:50:00,140,2025-01-28 17:50:00,4.5,2025-01-28 17:50:00,9.2,2025-01-28 17:50:00,67.9,2025-01-28 17:50:00,,,0,2025-01-28 17:50:00
254170330,TUCHOMKO,17.368333,54.131389,,,,,,,,,,,,,0.1,2025-01-28 17:50:00
254160150,MOKRE,16.401667,54.170278,,,,,,,,,,,,,0.4,2025-01-28 17:50:00
251170090,SMOLICE,17.179722,51.694167,6.8,2025-01-28 17:50:00,177,2025-01-28 17:50:00,0.8,2025-01-28 17:50:00,1.4,2025-01-28 17:50:00,85.7,2025-01-28 17:50:00,,,0,2025-01-28 17:50:00
250161060,ŁOMNICA,16.328333,50.672222,,,,,,,,,,,,,0.1,2025-01-28 17:50:00
253150290,ŁOPIANÓW,15.261389,53.875556,,,,,,,,,,,,,0.1,2025-01-28 17:50:00
253200290,BAGIENICE,20.858056,53.255,,,,,,,,,,,,,0,2025-01-28 17:50:00
250220020,ZAKRZÓWEK,22.3725,50.929444,,,,,,,,,,,,,0,2025-01-28 17:50:00
251200320,MSZCZONÓW,20.497222,51.984167,,,,,,,,,,,,,0,2025-01-28 17:50:00
253150310,NIEDŹWIEDZISKA,15.078056,53.949444,,,,,,,,,,,,,0.1,2025-01-28 17:50:00
250150590,NIEDAMIRÓW,15.870556,50.691111,,,,,,,,,,,,,0,2025-01-28 17:50:00
250190830,MYSŁÓW,19.215,50.572778,2.8,2025-01-28 17:50:00,97,2025-01-28 17:50:00,1.7,2025-01-28 17:50:00,2,2025-01-28 17:50:00,89.3,2025-01-28 17:50:00,,,0,2025-01-28 17:50:00
250210290,ŁUBNICE,21.154722,50.396944,,,,,,,,,,,,,0,2025-01-28 17:50:00
253150340,MIĘDZYRZECZE,15.568333,53.871944,5,2025-01-28 17:50:00,70,2025-01-28 17:50:00,0.7,2025-01-28 17:50:00,0.9,2025-01-28 17:50:00,100,2025-01-28 17:50:00,,,0.1,2025-01-28 17:50:00
250220230,PIWODA,22.755,50.076389,8.7,2025-01-28 17:50:00,143,2025-01-28 17:50:00,2.5,2025-01-28 17:50:00,3.6,2025-01-28 17:50:00,62.6,2025-01-28 17:50:00,,,0,2025-01-28 17:50:00
250161080,STARKÓWEK,16.518056,50.373333,,,,,,,,,,,,,0,2025-01-28 17:50:00
252220230,ANDRZEJEWO,22.185278,52.823333,,,,,,,,,,,,,0,2025-01-28 17:50:00
250170870,OPOLE-WIK,17.901111,50.681111,,,,,,,,,,,,,0,2025-01-28 17:50:00
254190150,SŁOBITY,19.751389,54.129722,,,,,,,,,,,,,0,2025-01-28 17:50:00
250190820,DĄBROWA GÓRNICZA,19.264444,50.402222,,,,,,,,,,,,,0,2025-01-28 17:50:00
249170080,DZIERŻKOWICE,17.846389,49.992222,,,,,,,,,,,,,0,2025-01-28 17:50:00
254170310,OBJEZIERZE,17.067778,54.300278,,,,,,,,,,,,,0.2,2025-01-28 17:50:00
250150540,CZERNICA,15.7175,50.974444,,,,,,,,,,,,,0,2025-01-28 17:50:00
250161020,ZIELENIEC II,16.399167,50.344444,,,,,,,,,,,,,0.2,2025-01-28 17:50:00
252230150,KLESZCZELE,23.319444,52.572222,,,,,,,,,,,,,0,2025-01-28 17:50:00
252140220,CHOJNA,14.404167,52.940833,7.6,2025-01-28 12:50:00,,,,,,,83,2025-01-28 12:50:00,,,0,2025-01-28 12:50:00
249180030,CHAŁUPKI,18.3275,49.925833,,,,,,,,,,,,,0,2025-01-28 17:50:00
253150350,RADOWO MAŁE,15.452222,53.668333,4.7,2025-01-28 17:50:00,0,2025-01-28 17:50:00,0,2025-01-28 17:50:00,0,2025-01-28 17:50:00,100,2025-01-28 17:50:00,,,0.2,2025-01-28 17:50:00
253180280,BRZOZOWO,18.424722,53.312222,7.2,2025-01-28 17:50:00,133,2025-01-28 17:50:00,5.5,2025-01-28 17:50:00,6.9,2025-01-28 17:50:00,93.1,2025-01-28 17:50:00,,,0,2025-01-28 17:50:00
250161040,ZŁOTY STOK,16.850556,50.429722,,,,,,,,,,,,,0,2025-01-28 17:50:00
252180380,RAKOWO,18.288611,52.497222,,,,,,,,,,,,,0,2025-01-28 17:50:00
254180290,SZYMANKOWO,18.931389,54.074167,7.1,2025-01-28 17:50:00,114,2025-01-28 17:50:00,3.4,2025-01-28 17:50:00,4.1,2025-01-28 17:50:00,90.5,2025-01-28 17:50:00,,,0,2025-01-28 17:50:00
250161090,WOLBROMEK,16.127222,50.929722,,,,,,,,,,,,,0,2025-01-28 17:50:00
252190230,PODDĘBICE,19.009167,52.553611,8.6,2025-01-28 17:50:00,129,2025-01-28 17:50:00,5.6,2025-01-28 17:50:00,8,2025-01-28 17:50:00,80.8,2025-01-28 17:50:00,,,0,2025-01-28 17:50:00
252200290,KAMPINOS,20.4725,52.268889,7.8,2025-01-28 17:50:00,139,2025-01-28 17:50:00,2.8,2025-01-28 17:50:00,4.2,2025-01-28 17:50:00,87,2025-01-28 17:50:00,,,0,2025-01-28 17:50:00
250230180,GRABOWIEC GÓRA,23.57,50.8125,,,,,,,,,,,,,0,2025-01-28 17:50:00
252190240,TRĘBKI,19.540556,52.320278,,,,,,,,,,,,,0,2025-01-28 17:50:00
253200140,WIELBARK,20.937222,53.406111,,,,,,,,,,,,,0,2025-01-28 17:50:00
